[{"airportCode":"AAA","internationalAirport":false,"domesticAirport":false,"regionalAirport":false,"onlineIndicator":false,"eticketableAirport":false,"location":{"aboveSeaLevel":-99999,"latitude":17.25,"latitudeRadius":-0.3040,"longitude":145.30,"longitudeRadius":-2.5395,"latitudeDirection":"S","longitudeDirection":"W"},"airportName":"Anaa","city":{"cityCode":"AAA","cityName":"Anaa","timeZoneName":"Pacific/Tahiti"},"country":{"countryCode":"PF","countryName":"French Polynesia"},"region":{"regionCode":"SP","regionName":"South Pacific"}},{"airportCode":"AAB","internationalAirport":false,"domesticAirport":false,"regionalAirport":false,"onlineIndicator":false,"eticketableAirport":false,"location":{"aboveSeaLevel":-99999,"latitude":26.45,"latitudeRadius":-0.4669,"longitude":141.00,"longitudeRadius":2.4609,"latitudeDirection":"S","longitudeDirection":"E"},"airportName":"Arrabury","city":{"cityCode":"AAB","cityName":"Arrabury","timeZoneName":"Australia/Brisbane"},"country":{"countryCode":"AU","countryName":"Australia"},"region":{"regionCode":"AU","regionName":"Australia"}},{"airportCode":"AAC","internationalAirport":false,"domesticAirport":false,"regionalAirport":false,"onlineIndicator":true,"eticketableAirport":false,"location":{"aboveSeaLevel":-99999,"latitude":31.10,"latitudeRadius":0.5440,"longitude":33.50,"longitudeRadius":0.5905,"latitudeDirection":"N","longitudeDirection":"E"},"airportName":"Al Arish","city":{"cityCode":"AAC","cityName":"Al Arish","timeZoneName":"Africa/Cairo"},"country":{"countryCode":"EG","countryName":"Egypt"},"region":{"regionCode":"AF","regionName":"Africa"}},{"airportCode":"AAE","internationalAirport":false,"domesticAirport":false,"regionalAirport":false,"onlineIndicator":false,"eticketableAirport":false,"location":{"aboveSeaLevel":16,"latitude":36.49,"latitudeRadius":0.6426,"longitude":7.48,"longitudeRadius":0.1361,"latitudeDirection":"N","longitudeDirection":"E"},"airportName":"Annaba","city":{"cityCode":"AAE","cityName":"Annaba","timeZoneName":"Africa/Algiers"},"country":{"countryCode":"DZ","countryName":"Algeria"},"region":{"regionCode":"AF","regionName":"Africa"}},{"airportCode":"AAH","internationalAirport":false,"domesticAirport":false,"regionalAirport":false,"onlineIndicator":false,"eticketableAirport":false,"location":{"aboveSeaLevel":1000,"latitude":50.46,"latitudeRadius":0.8860,"longitude":6.06,"longitudeRadius":0.1065,"latitudeDirection":"N","longitudeDirection":"E"},"airportName":"Aachen","city":{"cityCode":"AAH","cityName":"Aachen","timeZoneName":"Europe/Berlin"},"country":{"countryCode":"DE","countryName":"Germany"},"region":{"regionCode":"EU","regionName":"Europe"}},{"airportCode":"AAI","internationalAirport":false,"domesticAirport":false,"regionalAirport":false,"onlineIndicator":false,"eticketableAirport":false,"location":{"aboveSeaLevel":-99999,"latitude":12.55,"latitudeRadius":-0.2254,"longitude":46.55,"longitudeRadius":-0.8189,"latitudeDirection":"S","longitudeDirection":"W"},"airportName":"Arraias","city":{"cityCode":"AAI","cityName":"Arraias","timeZoneName":"America/Sao_Paulo"},"country":{"countryCode":"BR","countryName":"Brazil"},"region":{"regionCode":"AM","regionName":"Americas"}},{"airportCode":"AAK","internationalAirport":false,"domesticAirport":false,"regionalAirport":false,"onlineIndicator":false,"eticketableAirport":false,"location":{"aboveSeaLevel":-99999,"latitude":0.10,"latitudeRadius":0.0029,"longitude":173.35,"longitudeRadius":3.0296,"latitudeDirection":"N","longitudeDirection":"E"},"airportName":"Aranuka","city":{"cityCode":"AAK","cityName":"Aranuka","timeZoneName":"Pacific/Auckland"},"country":{"countryCode":"KI","countryName":"Kiribati"},"region":{"regionCode":"SP","regionName":"South Pacific"}},{"airportCode":"AAL","internationalAirport":false,"domesticAirport":false,"regionalAirport":false,"onlineIndicator":true,"eticketableAirport":false,"location":{"aboveSeaLevel":10,"latitude":57.05,"latitudeRadius":0.9963,"longitude":9.51,"longitudeRadius":0.1719,"latitudeDirection":"N","longitudeDirection":"E"},"airportName":"Aalborg","city":{"cityCode":"AAL","cityName":"Aalborg","timeZoneName":"Europe/Copenhagen"},"country":{"countryCode":"DK","countryName":"Denmark"},"region":{"regionCode":"EU","regionName":"Europe"}},{"airportCode":"AAM","internationalAirport":false,"domesticAirport":false,"regionalAirport":false,"onlineIndicator":true,"eticketableAirport":false,"location":{"aboveSeaLevel":-99999,"latitude":0.00,"latitudeRadius":0.0000,"longitude":0.00,"longitudeRadius":0.0000},"airportName":"Mala Mala","city":{"cityCode":"AAM","cityName":"Mala Mala","timeZoneName":"Africa/Johannesburg"},"country":{"countryCode":"ZA","countryName":"South Africa"},"region":{"regionCode":"AF","regionName":"Africa"}},{"airportCode":"AAN","internationalAirport":false,"domesticAirport":false,"regionalAirport":false,"onlineIndicator":true,"eticketableAirport":false,"location":{"aboveSeaLevel":-99999,"latitude":24.14,"latitudeRadius":0.4230,"longitude":55.46,"longitudeRadius":0.9733,"latitudeDirection":"N","longitudeDirection":"E"},"airportName":"Al Ain","city":{"cityCode":"AAN","cityName":"Al Ain","timeZoneName":"Asia/Dubai"},"country":{"countryCode":"AE","countryName":"United Arab Emirates"},"region":{"regionCode":"ME","regionName":"Middle East"}},{"airportCode":"AAO","internationalAirport":false,"domesticAirport":false,"regionalAirport":false,"onlineIndicator":false,"eticketableAirport":false,"location":{"aboveSeaLevel":-99999,"latitude":9.30,"latitudeRadius":0.1658,"longitude":64.28,"longitudeRadius":-1.1252,"latitudeDirection":"N","longitudeDirection":"W"},"airportName":"Anaco","city":{"cityCode":"AAO","cityName":"Anaco","timeZoneName":"America/Caracas"},"country":{"countryCode":"VE","countryName":"Venezuela"},"region":{"regionCode":"AM","regionName":"Americas"}},{"airportCode":"AAQ","internationalAirport":false,"domesticAirport":false,"regionalAirport":false,"onlineIndicator":true,"eticketableAirport":false,"location":{"aboveSeaLevel":0,"latitude":44.54,"latitudeRadius":0.7837,"longitude":37.20,"longitudeRadius":0.6516,"latitudeDirection":"N","longitudeDirection":"E"},"airportName":"Anapa","city":{"cityCode":"AAQ","cityName":"Anapa","timeZoneName":"Europe/Moscow"},"country":{"countryCode":"RU","countryName":"Russian Fed"},"region":{"regionCode":"EU","regionName":"Europe"}},{"airportCode":"AAR","internationalAirport":false,"domesticAirport":false,"regionalAirport":false,"onlineIndicator":true,"eticketableAirport":false,"location":{"aboveSeaLevel":-99999,"latitude":56.18,"latitudeRadius":0.9826,"longitude":10.15,"longitudeRadius":0.1789,"latitudeDirection":"N","longitudeDirection":"E"},"airportName":"Aarhus","city":{"cityCode":"AAR","cityName":"Aarhus","timeZoneName":"Europe/Copenhagen"},"country":{"countryCode":"DK","countryName":"Denmark"},"region":{"regionCode":"EU","regionName":"Europe"}},{"airportCode":"AAS","internationalAirport":false,"domesticAirport":false,"regionalAirport":false,"onlineIndicator":false,"eticketableAirport":false,"location":{"aboveSeaLevel":-99999,"latitude":0.00,"latitudeRadius":0.0000,"longitude":0.00,"longitudeRadius":0.0000},"airportName":"Apalapsili","city":{"cityCode":"AAS","cityName":"Apalapsili","timeZoneName":"Asia/Jayapura"},"country":{"countryCode":"ID","countryName":"Indonesia"},"region":{"regionCode":"AS","regionName":"Asia"}},{"airportCode":"AAT","internationalAirport":false,"domesticAirport":false,"regionalAirport":false,"onlineIndicator":false,"eticketableAirport":false,"location":{"aboveSeaLevel":-99999,"latitude":47.48,"latitudeRadius":0.8343,"longitude":88.07,"longitudeRadius":1.5379,"latitudeDirection":"N","longitudeDirection":"E"},"airportName":"Altay","city":{"cityCode":"AAT","cityName":"Altay","timeZoneName":"Asia/Shanghai"},"country":{"countryCode":"CN","countryName":"China"},"region":{"regionCode":"AS","regionName":"Asia"}},{"airportCode":"AAU","internationalAirport":false,"domesticAirport":false,"regionalAirport":false,"onlineIndicator":false,"eticketableAirport":false,"location":{"aboveSeaLevel":-99999,"latitude":13.26,"latitudeRadius":-0.2345,"longitude":172.35,"longitudeRadius":-3.0121,"latitudeDirection":"S","longitudeDirection":"W"},"airportName":"Asau","city":{"cityCode":"AAU","cityName":"Asau","timeZoneName":"Pacific/Apia"},"country":{"countryCode":"WS","countryName":"Samoa"},"region":{"regionCode":"SP","regionName":"South Pacific"}},{"airportCode":"AAV","internationalAirport":false,"domesticAirport":false,"regionalAirport":false,"onlineIndicator":false,"eticketableAirport":false,"location":{"aboveSeaLevel":-99999,"latitude":6.50,"latitudeRadius":0.1193,"longitude":124.40,"longitudeRadius":2.1758,"latitudeDirection":"N","longitudeDirection":"E"},"airportName":"Alah","city":{"cityCode":"AAV","cityName":"Alah","timeZoneName":"Asia/Manila"},"country":{"countryCode":"PH","countryName":"Philippines"},"region":{"regionCode":"AS","regionName":"Asia"}},{"airportCode":"AAX","internationalAirport":false,"domesticAirport":false,"regionalAirport":false,"onlineIndicator":false,"eticketableAirport":false,"location":{"aboveSeaLevel":-99999,"latitude":19.37,"latitudeRadius":-0.3424,"longitude":46.50,"longitudeRadius":-0.8174,"latitudeDirection":"S","longitudeDirection":"W"},"airportName":"Araxa","city":{"cityCode":"AAX","cityName":"Araxa","timeZoneName":"America/Sao_Paulo"},"country":{"countryCode":"BR","countryName":"Brazil"},"region":{"regionCode":"AM","regionName":"Americas"}},{"airportCode":"AAY","internationalAirport":false,"domesticAirport":false,"regionalAirport":false,"onlineIndicator":false,"eticketableAirport":false,"location":{"aboveSeaLevel":-99999,"latitude":16.12,"latitudeRadius":0.2827,"longitude":52.16,"longitudeRadius":0.9122,"latitudeDirection":"N","longitudeDirection":"E"},"airportName":"Al Ghaydah","city":{"cityCode":"AAY","cityName":"Al Ghaydah","timeZoneName":"Asia/Aden"},"country":{"countryCode":"YE","countryName":"Yemen Republic Of"},"region":{"regionCode":"EU","regionName":"Europe"}},{"airportCode":"ABA","internationalAirport":false,"domesticAirport":false,"regionalAirport":false,"onlineIndicator":true,"eticketableAirport":false,"location":{"aboveSeaLevel":1000,"latitude":53.43,"latitudeRadius":0.9375,"longitude":91.25,"longitudeRadius":1.5955,"latitudeDirection":"N","longitudeDirection":"E"},"airportName":"Abakan","city":{"cityCode":"ABA","cityName":"Abakan","timeZoneName":"Asia/Krasnoyarsk"},"country":{"countryCode":"RU","countryName":"Russian Fed"},"region":{"regionCode":"EU","regionName":"Europe"}},{"airportCode":"ABC","internationalAirport":false,"domesticAirport":false,"regionalAirport":false,"onlineIndicator":true,"eticketableAirport":false,"location":{"aboveSeaLevel":2221,"latitude":38.58,"latitudeRadius":0.6801,"longitude":1.51,"longitudeRadius":-0.0323,"latitudeDirection":"N","longitudeDirection":"W"},"airportName":"Albacete","city":{"cityCode":"ABC","cityName":"Albacete","timeZoneName":"Europe/Madrid"},"country":{"countryCode":"ES","countryName":"Spain"},"region":{"regionCode":"EU","regionName":"Europe"}},{"airportCode":"ABD","internationalAirport":false,"domesticAirport":false,"regionalAirport":false,"onlineIndicator":false,"eticketableAirport":false,"location":{"aboveSeaLevel":10,"latitude":30.22,"latitudeRadius":0.5300,"longitude":48.14,"longitudeRadius":0.8418,"latitudeDirection":"N","longitudeDirection":"E"},"airportName":"Abadan","city":{"cityCode":"ABD","cityName":"Abadan","timeZoneName":"Asia/Tehran"},"country":{"countryCode":"IR","countryName":"Iran"},"region":{"regionCode":"ME","regionName":"Middle East"}},{"airportCode":"ABE","internationalAirport":false,"domesticAirport":false,"regionalAirport":false,"onlineIndicator":true,"eticketableAirport":false,"location":{"aboveSeaLevel":394,"latitude":40.39,"latitudeRadius":0.7095,"longitude":75.26,"longitudeRadius":-1.3166,"latitudeDirection":"N","longitudeDirection":"W"},"airportName":"Allentown","city":{"cityCode":"ABE","cityName":"Allentown","timeZoneName":"America/New_York"},"country":{"countryCode":"US","countryName":"United States"},"region":{"regionCode":"AM","regionName":"Americas"}},{"airportCode":"ABF","internationalAirport":false,"domesticAirport":false,"regionalAirport":false,"onlineIndicator":false,"eticketableAirport":false,"location":{"aboveSeaLevel":-99999,"latitude":1.43,"latitudeRadius":0.0300,"longitude":173.00,"longitudeRadius":3.0194,"latitudeDirection":"N","longitudeDirection":"E"},"airportName":"Abaiang","city":{"cityCode":"ABF","cityName":"Abaiang","timeZoneName":"Pacific/Auckland"},"country":{"countryCode":"KI","countryName":"Kiribati"},"region":{"regionCode":"SP","regionName":"South Pacific"}},{"airportCode":"ABG","internationalAirport":false,"domesticAirport":false,"regionalAirport":false,"onlineIndicator":false,"eticketableAirport":false,"location":{"aboveSeaLevel":-99999,"latitude":17.35,"latitudeRadius":-0.3069,"longitude":143.10,"longitudeRadius":2.4987,"latitudeDirection":"S","longitudeDirection":"E"},"airportName":"Abingdon","city":{"cityCode":"ABG","cityName":"Abingdon","timeZoneName":"Australia/Brisbane"},"country":{"countryCode":"AU","countryName":"Australia"},"region":{"regionCode":"AU","regionName":"Australia"}},{"airportCode":"ABH","internationalAirport":false,"domesticAirport":false,"regionalAirport":false,"onlineIndicator":false,"eticketableAirport":false,"location":{"aboveSeaLevel":-99999,"latitude":23.37,"latitudeRadius":-0.4122,"longitude":146.37,"longitudeRadius":2.5589,"latitudeDirection":"S","longitudeDirection":"E"},"airportName":"Alpha","city":{"cityCode":"ABH","cityName":"Alpha","timeZoneName":"Australia/Brisbane"},"country":{"countryCode":"AU","countryName":"Australia"},"region":{"regionCode":"AU","regionName":"Australia"}},{"airportCode":"ABI","internationalAirport":false,"domesticAirport":false,"regionalAirport":false,"onlineIndicator":false,"eticketableAirport":false,"location":{"aboveSeaLevel":1790,"latitude":32.24,"latitudeRadius":0.5655,"longitude":99.40,"longitudeRadius":-1.7395,"latitudeDirection":"N","longitudeDirection":"W"},"airportName":"Abilene","city":{"cityCode":"ABI","cityName":"Abilene","timeZoneName":"America/Chicago"},"country":{"countryCode":"US","countryName":"United States"},"region":{"regionCode":"AM","regionName":"Americas"}},{"airportCode":"ABJ","internationalAirport":false,"domesticAirport":false,"regionalAirport":false,"onlineIndicator":true,"eticketableAirport":false,"location":{"aboveSeaLevel":20,"latitude":5.15,"latitudeRadius":0.0916,"longitude":3.55,"longitudeRadius":-0.0684,"latitudeDirection":"N","longitudeDirection":"W"},"airportName":"Abidjan","city":{"cityCode":"ABJ","cityName":"Abidjan","timeZoneName":"Etc/GMT"},"country":{"countryCode":"CI","countryName":"Ivory Coast"},"region":{"regionCode":"AF","regionName":"Africa"}},{"airportCode":"ABK","internationalAirport":false,"domesticAirport":false,"regionalAirport":false,"onlineIndicator":false,"eticketableAirport":false,"location":{"aboveSeaLevel":-99999,"latitude":6.45,"latitudeRadius":0.1178,"longitude":44.17,"longitudeRadius":0.7729,"latitudeDirection":"N","longitudeDirection":"E"},"airportName":"Kabri Dar","city":{"cityCode":"ABK","cityName":"Kabri Dar","timeZoneName":"Africa/Nairobi"},"country":{"countryCode":"ET","countryName":"Ethiopia"},"region":{"regionCode":"AF","regionName":"Africa"}},{"airportCode":"ABL","internationalAirport":false,"domesticAirport":false,"regionalAirport":false,"onlineIndicator":false,"eticketableAirport":false,"location":{"aboveSeaLevel":-99999,"latitude":67.10,"latitudeRadius":1.1723,"longitude":157.00,"longitudeRadius":-2.7402,"latitudeDirection":"N","longitudeDirection":"W"},"airportName":"Ambler","city":{"cityCode":"ABL","cityName":"Ambler","timeZoneName":"America/Anchorage"},"country":{"countryCode":"US","countryName":"United States"},"region":{"regionCode":"AM","regionName":"Americas"}},{"airportCode":"ABM","internationalAirport":false,"domesticAirport":false,"regionalAirport":false,"onlineIndicator":true,"eticketableAirport":false,"location":{"aboveSeaLevel":-99999,"latitude":10.50,"latitudeRadius":-0.1891,"longitude":142.25,"longitudeRadius":2.4856,"latitudeDirection":"S","longitudeDirection":"E"},"airportName":"Bamaga","city":{"cityCode":"ABM","cityName":"Bamaga","timeZoneName":"Australia/Brisbane"},"country":{"countryCode":"AU","countryName":"Australia"},"region":{"regionCode":"AU","regionName":"Australia"}},{"airportCode":"ABN","internationalAirport":false,"domesticAirport":false,"regionalAirport":false,"onlineIndicator":false,"eticketableAirport":false,"location":{"aboveSeaLevel":-99999,"latitude":5.29,"latitudeRadius":0.0957,"longitude":54.08,"longitudeRadius":-0.9448,"latitudeDirection":"N","longitudeDirection":"W"},"airportName":"Albina","city":{"cityCode":"ABN","cityName":"Albina","timeZoneName":"America/Sao_Paulo"},"country":{"countryCode":"SR","countryName":"Surinam"},"region":{"regionCode":"AM","regionName":"Americas"}},{"airportCode":"ABP","internationalAirport":false,"domesticAirport":false,"regionalAirport":false,"onlineIndicator":false,"eticketableAirport":false,"location":{"aboveSeaLevel":-99999,"latitude":6.04,"latitudeRadius":-0.1059,"longitude":141.06,"longitudeRadius":2.4627,"latitudeDirection":"S","longitudeDirection":"E"},"airportName":"Atkamba","city":{"cityCode":"ABP","cityName":"Atkamba","timeZoneName":"Pacific/Saipan"},"country":{"countryCode":"PG","countryName":"Papua New Guinea"},"region":{"regionCode":"SP","regionName":"South Pacific"}},{"airportCode":"ABQ","internationalAirport":false,"domesticAirport":false,"regionalAirport":false,"onlineIndicator":true,"eticketableAirport":false,"location":{"aboveSeaLevel":5308,"latitude":35.02,"latitudeRadius":0.6114,"longitude":106.36,"longitudeRadius":-1.8605,"latitudeDirection":"N","longitudeDirection":"W"},"airportName":"Albuquerque","city":{"cityCode":"ABQ","cityName":"Albuquerque","timeZoneName":"America/Denver"},"country":{"countryCode":"US","countryName":"United States"},"region":{"regionCode":"AM","regionName":"Americas"}},{"airportCode":"ABR","internationalAirport":false,"domesticAirport":false,"regionalAirport":false,"onlineIndicator":false,"eticketableAirport":false,"location":{"aboveSeaLevel":1301,"latitude":45.27,"latitudeRadius":0.7933,"longitude":98.25,"longitudeRadius":-1.7177,"latitudeDirection":"N","longitudeDirection":"W"},"airportName":"Aberdeen","city":{"cityCode":"ABR","cityName":"Aberdeen","timeZoneName":"America/Chicago"},"country":{"countryCode":"US","countryName":"United States"},"region":{"regionCode":"AM","regionName":"Americas"}},{"airportCode":"ABS","internationalAirport":false,"domesticAirport":false,"regionalAirport":false,"onlineIndicator":false,"eticketableAirport":false,"location":{"aboveSeaLevel":616,"latitude":22.22,"latitudeRadius":0.3904,"longitude":31.36,"longitudeRadius":0.5515,"latitudeDirection":"N","longitudeDirection":"E"},"airportName":"Abu Simbel","city":{"cityCode":"ABS","cityName":"Abu Simbel","timeZoneName":"Africa/Cairo"},"country":{"countryCode":"EG","countryName":"Egypt"},"region":{"regionCode":"AF","regionName":"Africa"}},{"airportCode":"ABT","internationalAirport":false,"domesticAirport":false,"regionalAirport":false,"onlineIndicator":false,"eticketableAirport":false,"location":{"aboveSeaLevel":2303,"latitude":38.57,"latitudeRadius":0.6798,"longitude":1.52,"longitudeRadius":-0.0326,"latitudeDirection":"N","longitudeDirection":"W"},"airportName":"Al Baha","city":{"cityCode":"ABT","cityName":"Al Baha","timeZoneName":"Asia/Riyadh"},"country":{"countryCode":"SA","countryName":"Saudi Arabia"},"region":{"regionCode":"ME","regionName":"Middle East"}},{"airportCode":"ABU","internationalAirport":false,"domesticAirport":false,"regionalAirport":false,"onlineIndicator":false,"eticketableAirport":false,"location":{"aboveSeaLevel":-99999,"latitude":9.06,"latitudeRadius":-0.1588,"longitude":124.55,"longitudeRadius":2.1802,"latitudeDirection":"S","longitudeDirection":"E"},"airportName":"Atambua Haliwen","city":{"cityCode":"ABU","cityName":"Atambua Haliwen","timeZoneName":"Asia/Makassar"},"country":{"countryCode":"ID","countryName":"Indonesia"},"region":{"regionCode":"AS","regionName":"Asia"}},{"airportCode":"ABV","internationalAirport":false,"domesticAirport":false,"regionalAirport":false,"onlineIndicator":true,"eticketableAirport":false,"location":{"aboveSeaLevel":-99999,"latitude":9.10,"latitudeRadius":0.1600,"longitude":7.06,"longitudeRadius":0.1239,"latitudeDirection":"N","longitudeDirection":"E"},"airportName":"Abuja","city":{"cityCode":"ABV","cityName":"Abuja","timeZoneName":"Africa/Algiers"},"country":{"countryCode":"NG","countryName":"Nigeria"},"region":{"regionCode":"AF","regionName":"Africa"}},{"airportCode":"ABX","preferredInternationalAirportCode":"SYD","internationalAirport":false,"domesticAirport":true,"regionalAirport":true,"onlineIndicator":true,"eticketableAirport":false,"location":{"aboveSeaLevel":539,"latitude":36.04,"latitudeRadius":-0.6295,"longitude":146.57,"longitudeRadius":2.5648,"latitudeDirection":"S","longitudeDirection":"E"},"airportName":"Albury","city":{"cityCode":"ABX","cityName":"Albury","timeZoneName":"Australia/Sydney"},"country":{"countryCode":"AU","countryName":"Australia"},"region":{"regionCode":"AU","regionName":"Australia"}},{"airportCode":"ABY","internationalAirport":false,"domesticAirport":false,"regionalAirport":false,"onlineIndicator":false,"eticketableAirport":false,"location":{"aboveSeaLevel":197,"latitude":31.32,"latitudeRadius":0.5504,"longitude":84.11,"longitudeRadius":-1.4693,"latitudeDirection":"N","longitudeDirection":"W"},"airportName":"Albany","city":{"cityCode":"ABY","cityName":"Albany","timeZoneName":"America/New_York"},"country":{"countryCode":"US","countryName":"United States"},"region":{"regionCode":"AM","regionName":"Americas"}},{"airportCode":"ABZ","internationalAirport":false,"domesticAirport":false,"regionalAirport":false,"onlineIndicator":true,"eticketableAirport":true,"location":{"aboveSeaLevel":200,"latitude":57.12,"latitudeRadius":0.9983,"longitude":2.12,"longitudeRadius":-0.0384,"latitudeDirection":"N","longitudeDirection":"W"},"airportName":"Aberdeen","city":{"cityCode":"ABZ","cityName":"Aberdeen","timeZoneName":"Europe/London"},"country":{"countryCode":"GB","countryName":"United Kingdom"},"region":{"regionCode":"EU","regionName":"Europe"}},{"airportCode":"ACA","internationalAirport":false,"domesticAirport":false,"regionalAirport":false,"onlineIndicator":true,"eticketableAirport":false,"location":{"aboveSeaLevel":18,"latitude":16.45,"latitudeRadius":0.2923,"longitude":99.45,"longitudeRadius":-1.7410,"latitudeDirection":"N","longitudeDirection":"W"},"airportName":"Acapulco","city":{"cityCode":"ACA","cityName":"Acapulco","timeZoneName":"America/Mexico_City"},"country":{"countryCode":"MX","countryName":"Mexico"},"region":{"regionCode":"AM","regionName":"Americas"}},{"airportCode":"ACC","internationalAirport":false,"domesticAirport":false,"regionalAirport":false,"onlineIndicator":true,"eticketableAirport":false,"location":{"aboveSeaLevel":205,"latitude":5.35,"latitudeRadius":0.0974,"longitude":0.10,"longitudeRadius":-0.0029,"latitudeDirection":"N","longitudeDirection":"W"},"airportName":"Accra","city":{"cityCode":"ACC","cityName":"Accra","timeZoneName":"Etc/GMT"},"country":{"countryCode":"GH","countryName":"Ghana"},"region":{"regionCode":"AF","regionName":"Africa"}},{"airportCode":"ACD","internationalAirport":false,"domesticAirport":false,"regionalAirport":false,"onlineIndicator":false,"eticketableAirport":false,"location":{"aboveSeaLevel":-99999,"latitude":8.32,"latitudeRadius":0.1489,"longitude":77.20,"longitudeRadius":-1.3497,"latitudeDirection":"N","longitudeDirection":"W"},"airportName":"Acandi","city":{"cityCode":"ACD","cityName":"Acandi","timeZoneName":"America/Bogota"},"country":{"countryCode":"CO","countryName":"Colombia"},"region":{"regionCode":"AM","regionName":"Americas"}},{"airportCode":"ACE","internationalAirport":false,"domesticAirport":false,"regionalAirport":false,"onlineIndicator":true,"eticketableAirport":false,"location":{"aboveSeaLevel":46,"latitude":28.56,"latitudeRadius":0.5050,"longitude":13.36,"longitudeRadius":-0.2374,"latitudeDirection":"N","longitudeDirection":"W"},"airportName":"Lanzarote","city":{"cityCode":"ACE","cityName":"Lanzarote","timeZoneName":"Atlantic/Canary"},"country":{"countryCode":"ES","countryName":"Spain"},"region":{"regionCode":"EU","regionName":"Europe"}},{"airportCode":"ACH","internationalAirport":false,"domesticAirport":false,"regionalAirport":false,"onlineIndicator":false,"eticketableAirport":false,"location":{"aboveSeaLevel":-99999,"latitude":0.00,"latitudeRadius":0.0000,"longitude":0.00,"longitudeRadius":0.0000},"airportName":"Altenrhein","city":{"cityCode":"ACH","cityName":"Altenrhein","timeZoneName":"Europe/Zurich"},"country":{"countryCode":"CH","countryName":"Switzerland"},"region":{"regionCode":"EU","regionName":"Europe"}},{"airportCode":"ACI","internationalAirport":false,"domesticAirport":false,"regionalAirport":false,"onlineIndicator":false,"eticketableAirport":false,"location":{"aboveSeaLevel":-99999,"latitude":49.43,"latitudeRadius":0.8677,"longitude":2.12,"longitudeRadius":-0.0384,"latitudeDirection":"N","longitudeDirection":"W"},"airportName":"Alderney","city":{"cityCode":"ACI","cityName":"Alderney","timeZoneName":"Europe/London"},"country":{"countryCode":"GB","countryName":"United Kingdom"},"region":{"regionCode":"EU","regionName":"Europe"}},{"airportCode":"ACK","internationalAirport":false,"domesticAirport":false,"regionalAirport":false,"onlineIndicator":false,"eticketableAirport":false,"location":{"aboveSeaLevel":48,"latitude":41.15,"latitudeRadius":0.7199,"longitude":70.03,"longitudeRadius":-1.2226,"latitudeDirection":"N","longitudeDirection":"W"},"airportName":"Nantucket","city":{"cityCode":"ACK","cityName":"Nantucket","timeZoneName":"America/New_York"},"country":{"countryCode":"US","countryName":"United States"},"region":{"regionCode":"AM","regionName":"Americas"}},{"airportCode":"ACL","internationalAirport":false,"domesticAirport":false,"regionalAirport":false,"onlineIndicator":false,"eticketableAirport":false,"location":{"aboveSeaLevel":-99999,"latitude":4.45,"latitudeRadius":0.0829,"longitude":73.01,"longitudeRadius":-1.2744,"latitudeDirection":"N","longitudeDirection":"W"},"airportName":"Aguaclara","city":{"cityCode":"ACL","cityName":"Aguaclara","timeZoneName":"America/Bogota"},"country":{"countryCode":"CO","countryName":"Colombia"},"region":{"regionCode":"AM","regionName":"Americas"}},{"airportCode":"ACM","internationalAirport":false,"domesticAirport":false,"regionalAirport":false,"onlineIndicator":false,"eticketableAirport":false,"location":{"aboveSeaLevel":-99999,"latitude":2.07,"latitudeRadius":-0.0369,"longitude":71.46,"longitudeRadius":-1.2526,"latitudeDirection":"S","longitudeDirection":"W"},"airportName":"Arica","city":{"cityCode":"ACM","cityName":"Arica","timeZoneName":"America/Bogota"},"country":{"countryCode":"CO","countryName":"Colombia"},"region":{"regionCode":"AM","regionName":"Americas"}},{"airportCode":"ACO","internationalAirport":false,"domesticAirport":false,"regionalAirport":false,"onlineIndicator":false,"eticketableAirport":false,"location":{"aboveSeaLevel":-99999,"latitude":0.00,"latitudeRadius":0.0000,"longitude":0.00,"longitudeRadius":0.0000},"airportName":"Ascona","city":{"cityCode":"ACO","cityName":"Ascona","timeZoneName":"Europe/Zurich"},"country":{"countryCode":"CH","countryName":"Switzerland"},"region":{"regionCode":"EU","regionName":"Europe"}},{"airportCode":"ACP","internationalAirport":false,"domesticAirport":false,"regionalAirport":false,"onlineIndicator":false,"eticketableAirport":false,"location":{"aboveSeaLevel":11748,"latitude":37.07,"latitudeRadius":0.6478,"longitude":46.27,"longitudeRadius":0.8107,"latitudeDirection":"N","longitudeDirection":"E"},"airportName":"Sahand","city":{"cityCode":"ACP","cityName":"Sahand","timeZoneName":"Asia/Tehran"},"country":{"countryCode":"IR","countryName":"Iran"},"region":{"regionCode":"ME","regionName":"Middle East"}},{"airportCode":"ACR","internationalAirport":false,"domesticAirport":false,"regionalAirport":false,"onlineIndicator":false,"eticketableAirport":false,"location":{"aboveSeaLevel":-99999,"latitude":0.28,"latitudeRadius":-0.0081,"longitude":72.13,"longitudeRadius":-1.2604,"latitudeDirection":"S","longitudeDirection":"W"},"airportName":"Araracuara","city":{"cityCode":"ACR","cityName":"Araracuara","timeZoneName":"America/Bogota"},"country":{"countryCode":"CO","countryName":"Colombia"},"region":{"regionCode":"AM","regionName":"Americas"}},{"airportCode":"ACS","internationalAirport":false,"domesticAirport":false,"regionalAirport":false,"onlineIndicator":false,"eticketableAirport":false,"location":{"aboveSeaLevel":0,"latitude":56.20,"latitudeRadius":0.9832,"longitude":90.33,"longitudeRadius":1.5804,"latitudeDirection":"N","longitudeDirection":"E"},"airportName":"Achinsk","city":{"cityCode":"ACS","cityName":"Achinsk","timeZoneName":"Asia/Krasnoyarsk"},"country":{"countryCode":"RU","countryName":"Russian Fed"},"region":{"regionCode":"EU","regionName":"Europe"}},{"airportCode":"ACT","internationalAirport":false,"domesticAirport":false,"regionalAirport":false,"onlineIndicator":false,"eticketableAirport":false,"location":{"aboveSeaLevel":516,"latitude":31.36,"latitudeRadius":0.5515,"longitude":97.13,"longitudeRadius":-1.6968,"latitudeDirection":"N","longitudeDirection":"W"},"airportName":"Waco","city":{"cityCode":"ACT","cityName":"Waco","timeZoneName":"America/Chicago"},"country":{"countryCode":"US","countryName":"United States"},"region":{"regionCode":"AM","regionName":"Americas"}},{"airportCode":"ACU","internationalAirport":false,"domesticAirport":false,"regionalAirport":false,"onlineIndicator":false,"eticketableAirport":false,"location":{"aboveSeaLevel":-99999,"latitude":9.11,"latitudeRadius":0.1603,"longitude":78.00,"longitudeRadius":-1.3614,"latitudeDirection":"N","longitudeDirection":"W"},"airportName":"Achutupo","city":{"cityCode":"ACU","cityName":"Achutupo","timeZoneName":"America/Panama"},"country":{"countryCode":"PA","countryName":"Panama"},"region":{"regionCode":"AM","regionName":"Americas"}},{"airportCode":"ACV","internationalAirport":false,"domesticAirport":false,"regionalAirport":false,"onlineIndicator":true,"eticketableAirport":false,"location":{"aboveSeaLevel":218,"latitude":40.58,"latitudeRadius":0.7150,"longitude":124.06,"longitudeRadius":-2.1660,"latitudeDirection":"N","longitudeDirection":"W"},"airportName":"Eureka Arcata","city":{"cityCode":"ACV","cityName":"Eureka Arcata","timeZoneName":"America/Los_Angeles"},"country":{"countryCode":"US","countryName":"United States"},"region":{"regionCode":"AM","regionName":"Americas"}},{"airportCode":"ACY","internationalAirport":false,"domesticAirport":false,"regionalAirport":false,"onlineIndicator":false,"eticketableAirport":false,"location":{"aboveSeaLevel":76,"latitude":39.27,"latitudeRadius":0.6885,"longitude":74.34,"longitudeRadius":-1.3014,"latitudeDirection":"N","longitudeDirection":"W"},"airportName":"Atlantic City","city":{"cityCode":"AIY","cityName":"Atlantic City","timeZoneName":"America/New_York"},"country":{"countryCode":"US","countryName":"United States"},"region":{"regionCode":"AM","regionName":"Americas"}},{"airportCode":"ACZ","internationalAirport":false,"domesticAirport":false,"regionalAirport":false,"onlineIndicator":false,"eticketableAirport":false,"location":{"aboveSeaLevel":1578,"latitude":31.01,"latitudeRadius":0.5413,"longitude":61.29,"longitudeRadius":1.0731,"latitudeDirection":"N","longitudeDirection":"E"},"airportName":"Zabol","city":{"cityCode":"ACZ","cityName":"Zabol","timeZoneName":"Asia/Tehran"},"country":{"countryCode":"IR","countryName":"Iran"},"region":{"regionCode":"ME","regionName":"Middle East"}},{"airportCode":"ADA","internationalAirport":false,"domesticAirport":false,"regionalAirport":false,"onlineIndicator":false,"eticketableAirport":false,"location":{"aboveSeaLevel":64,"latitude":36.59,"latitudeRadius":0.6455,"longitude":35.16,"longitudeRadius":0.6155,"latitudeDirection":"N","longitudeDirection":"E"},"airportName":"Adana","city":{"cityCode":"ADA","cityName":"Adana","timeZoneName":"Europe/Istanbul"},"country":{"countryCode":"TR","countryName":"Turkey"},"region":{"regionCode":"EU","regionName":"Europe"}},{"airportCode":"ADB","internationalAirport":false,"domesticAirport":false,"regionalAirport":false,"onlineIndicator":false,"eticketableAirport":false,"location":{"aboveSeaLevel":0,"latitude":38.25,"latitudeRadius":0.6705,"longitude":27.10,"longitudeRadius":0.4741,"latitudeDirection":"N","longitudeDirection":"E"},"airportName":"Izmir","city":{"cityCode":"IZM","cityName":"Izmir","timeZoneName":"Europe/Istanbul"},"country":{"countryCode":"TR","countryName":"Turkey"},"region":{"regionCode":"EU","regionName":"Europe"}},{"airportCode":"ADD","internationalAirport":false,"domesticAirport":false,"regionalAirport":false,"onlineIndicator":true,"eticketableAirport":false,"location":{"aboveSeaLevel":7625,"latitude":8.58,"latitudeRadius":0.1565,"longitude":38.47,"longitudeRadius":0.6769,"latitudeDirection":"N","longitudeDirection":"E"},"airportName":"Addis Ababa","city":{"cityCode":"ADD","cityName":"Addis Ababa","timeZoneName":"Africa/Nairobi"},"country":{"countryCode":"ET","countryName":"Ethiopia"},"region":{"regionCode":"AF","regionName":"Africa"}},{"airportCode":"ADE","internationalAirport":false,"domesticAirport":false,"regionalAirport":false,"onlineIndicator":true,"eticketableAirport":false,"location":{"aboveSeaLevel":12,"latitude":12.49,"latitudeRadius":0.2237,"longitude":45.01,"longitudeRadius":0.7857,"latitudeDirection":"N","longitudeDirection":"E"},"airportName":"Aden","city":{"cityCode":"ADE","cityName":"Aden","timeZoneName":"Asia/Aden"},"country":{"countryCode":"YE","countryName":"Yemen Republic Of"},"region":{"regionCode":"EU","regionName":"Europe"}},{"airportCode":"ADF","internationalAirport":false,"domesticAirport":false,"regionalAirport":false,"onlineIndicator":false,"eticketableAirport":false,"location":{"aboveSeaLevel":0,"latitude":37.43,"latitudeRadius":0.6583,"longitude":38.27,"longitudeRadius":0.6711,"latitudeDirection":"N","longitudeDirection":"E"},"airportName":"Adiyaman","city":{"cityCode":"ADF","cityName":"Adiyaman","timeZoneName":"Europe/Istanbul"},"country":{"countryCode":"TR","countryName":"Turkey"},"region":{"regionCode":"EU","regionName":"Europe"}},{"airportCode":"ADH","internationalAirport":false,"domesticAirport":false,"regionalAirport":false,"onlineIndicator":false,"eticketableAirport":false,"location":{"aboveSeaLevel":1008,"latitude":58.44,"latitudeRadius":1.0251,"longitude":125.22,"longitudeRadius":2.1881,"latitudeDirection":"N","longitudeDirection":"E"},"airportName":"Aldan","city":{"cityCode":"ADH","cityName":"Aldan","timeZoneName":"Asia/Yakutsk"},"country":{"countryCode":"RU","countryName":"Russian Fed"},"region":{"regionCode":"EU","regionName":"Europe"}},{"airportCode":"ADJ","internationalAirport":false,"domesticAirport":false,"regionalAirport":false,"onlineIndicator":true,"eticketableAirport":false,"location":{"aboveSeaLevel":2539,"latitude":31.58,"latitudeRadius":0.5579,"longitude":35.59,"longitudeRadius":0.6280,"latitudeDirection":"N","longitudeDirection":"E"},"airportName":"Amman (Marka)","city":{"cityCode":"AMM","cityName":"Amman","timeZoneName":"Asia/Amman"},"country":{"countryCode":"JO","countryName":"Jordan"},"region":{"regionCode":"ME","regionName":"Middle East"}},{"airportCode":"ADK","internationalAirport":false,"domesticAirport":false,"regionalAirport":false,"onlineIndicator":true,"eticketableAirport":false,"location":{"aboveSeaLevel":19,"latitude":51.53,"latitudeRadius":0.9055,"longitude":176.38,"longitudeRadius":-3.0828,"latitudeDirection":"N","longitudeDirection":"W"},"airportName":"Adak Island","city":{"cityCode":"ADK","cityName":"Adak Island","timeZoneName":"America/Anchorage"},"country":{"countryCode":"US","countryName":"United States"},"region":{"regionCode":"AM","regionName":"Americas"}},{"airportCode":"ADL","internationalAirport":true,"domesticAirport":true,"regionalAirport":false,"onlineIndicator":true,"eticketableAirport":true,"location":{"aboveSeaLevel":20,"latitude":34.56,"latitudeRadius":-0.6097,"longitude":138.31,"longitudeRadius":2.4176,"latitudeDirection":"S","longitudeDirection":"E"},"airportName":"Adelaide","city":{"cityCode":"ADL","cityName":"Adelaide","timeZoneName":"Australia/Adelaide"},"country":{"countryCode":"AU","countryName":"Australia"},"region":{"regionCode":"AU","regionName":"Australia"}},{"airportCode":"ADM","internationalAirport":false,"domesticAirport":false,"regionalAirport":false,"onlineIndicator":false,"eticketableAirport":false,"location":{"aboveSeaLevel":762,"latitude":34.18,"latitudeRadius":0.5986,"longitude":97.01,"longitudeRadius":-1.6933,"latitudeDirection":"N","longitudeDirection":"W"},"airportName":"Ardmore","city":{"cityCode":"ADM","cityName":"Ardmore","timeZoneName":"America/Chicago"},"country":{"countryCode":"US","countryName":"United States"},"region":{"regionCode":"AM","regionName":"Americas"}},{"airportCode":"ADN","internationalAirport":false,"domesticAirport":false,"regionalAirport":false,"onlineIndicator":false,"eticketableAirport":false,"location":{"aboveSeaLevel":-99999,"latitude":5.40,"latitudeRadius":0.0989,"longitude":75.56,"longitudeRadius":-1.3253,"latitudeDirection":"N","longitudeDirection":"W"},"airportName":"Andes","city":{"cityCode":"ADN","cityName":"Andes","timeZoneName":"America/Bogota"},"country":{"countryCode":"CO","countryName":"Colombia"},"region":{"regionCode":"AM","regionName":"Americas"}},{"airportCode":"ADO","internationalAirport":false,"domesticAirport":false,"regionalAirport":false,"onlineIndicator":false,"eticketableAirport":false,"location":{"aboveSeaLevel":-99999,"latitude":30.29,"latitudeRadius":-0.5320,"longitude":137.07,"longitudeRadius":2.3931,"latitudeDirection":"S","longitudeDirection":"E"},"airportName":"Andamooka","city":{"cityCode":"ADO","cityName":"Andamooka","timeZoneName":"Australia/Adelaide"},"country":{"countryCode":"AU","countryName":"Australia"},"region":{"regionCode":"AU","regionName":"Australia"}},{"airportCode":"ADQ","internationalAirport":false,"domesticAirport":false,"regionalAirport":false,"onlineIndicator":true,"eticketableAirport":false,"location":{"aboveSeaLevel":73,"latitude":57.45,"latitudeRadius":1.0079,"longitude":152.29,"longitudeRadius":-2.6613,"latitudeDirection":"N","longitudeDirection":"W"},"airportName":"Kodiak","city":{"cityCode":"ADQ","cityName":"Kodiak","timeZoneName":"America/Anchorage"},"country":{"countryCode":"US","countryName":"United States"},"region":{"regionCode":"AM","regionName":"Americas"}},{"airportCode":"ADS","internationalAirport":false,"domesticAirport":false,"regionalAirport":false,"onlineIndicator":true,"eticketableAirport":false,"location":{"aboveSeaLevel":0,"latitude":32.58,"latitudeRadius":0.5754,"longitude":96.50,"longitudeRadius":-1.6901,"latitudeDirection":"N","longitudeDirection":"W"},"airportName":"Dallas (Addison)","city":{"cityCode":"DFW","cityName":"Dallas Fort Worth","timeZoneName":"America/Chicago"},"country":{"countryCode":"US","countryName":"United States"},"region":{"regionCode":"AM","regionName":"Americas"}},{"airportCode":"ADU","internationalAirport":false,"domesticAirport":false,"regionalAirport":false,"onlineIndicator":false,"eticketableAirport":false,"location":{"aboveSeaLevel":0,"latitude":38.15,"latitudeRadius":0.6676,"longitude":48.18,"longitudeRadius":0.8430,"latitudeDirection":"N","longitudeDirection":"E"},"airportName":"Ardabil","city":{"cityCode":"ADU","cityName":"Ardabil","timeZoneName":"Asia/Tehran"},"country":{"countryCode":"IR","countryName":"Iran"},"region":{"regionCode":"ME","regionName":"Middle East"}},{"airportCode":"ADV","internationalAirport":false,"domesticAirport":false,"regionalAirport":false,"onlineIndicator":false,"eticketableAirport":false,"location":{"aboveSeaLevel":-99999,"latitude":51.13,"latitudeRadius":0.8939,"longitude":1.28,"longitudeRadius":-0.0256,"latitudeDirection":"N","longitudeDirection":"W"},"airportName":"Andover","city":{"cityCode":"ADV","cityName":"Andover","timeZoneName":"Europe/London"},"country":{"countryCode":"GB","countryName":"United Kingdom"},"region":{"regionCode":"EU","regionName":"Europe"}},{"airportCode":"ADW","internationalAirport":false,"domesticAirport":false,"regionalAirport":false,"onlineIndicator":false,"eticketableAirport":false,"location":{"aboveSeaLevel":281,"latitude":38.48,"latitudeRadius":0.6772,"longitude":76.52,"longitudeRadius":-1.3416,"latitudeDirection":"N","longitudeDirection":"W"},"airportName":"Camp Springs","city":{"cityCode":"ADW","cityName":"Camp Springs","timeZoneName":"America/New_York"},"country":{"countryCode":"US","countryName":"United States"},"region":{"regionCode":"AM","regionName":"Americas"}},{"airportCode":"ADY","internationalAirport":false,"domesticAirport":false,"regionalAirport":false,"onlineIndicator":false,"eticketableAirport":false,"location":{"aboveSeaLevel":-99999,"latitude":22.40,"latitudeRadius":-0.3956,"longitude":29.06,"longitudeRadius":0.5079,"latitudeDirection":"S","longitudeDirection":"E"},"airportName":"Alldays","city":{"cityCode":"ADY","cityName":"Alldays","timeZoneName":"Africa/Johannesburg"},"country":{"countryCode":"ZA","countryName":"South Africa"},"region":{"regionCode":"AF","regionName":"Africa"}},{"airportCode":"ADZ","internationalAirport":false,"domesticAirport":false,"regionalAirport":false,"onlineIndicator":true,"eticketableAirport":false,"location":{"aboveSeaLevel":19,"latitude":12.35,"latitudeRadius":0.2196,"longitude":81.43,"longitudeRadius":-1.4262,"latitudeDirection":"N","longitudeDirection":"W"},"airportName":"San Andres","city":{"cityCode":"ADZ","cityName":"San Andres","timeZoneName":"America/Bogota"},"country":{"countryCode":"CO","countryName":"Colombia"},"region":{"regionCode":"AM","regionName":"Americas"}},{"airportCode":"AEA","internationalAirport":false,"domesticAirport":false,"regionalAirport":false,"onlineIndicator":false,"eticketableAirport":false,"location":{"aboveSeaLevel":-99999,"latitude":0.20,"latitudeRadius":0.0058,"longitude":173.51,"longitudeRadius":3.0343,"latitudeDirection":"N","longitudeDirection":"E"},"airportName":"Abemama","city":{"cityCode":"AEA","cityName":"Abemama","timeZoneName":"Pacific/Auckland"},"country":{"countryCode":"KI","countryName":"Kiribati"},"region":{"regionCode":"SP","regionName":"South Pacific"}},{"airportCode":"AED","internationalAirport":false,"domesticAirport":false,"regionalAirport":false,"onlineIndicator":false,"eticketableAirport":false,"location":{"aboveSeaLevel":0,"latitude":68.02,"latitudeRadius":1.1874,"longitude":162.54,"longitudeRadius":-2.8431,"latitudeDirection":"N","longitudeDirection":"W"},"airportName":"Aleneva","city":{"cityCode":"AED","cityName":"Aleneva","timeZoneName":"America/Anchorage"},"country":{"countryCode":"US","countryName":"United States"},"region":{"regionCode":"AM","regionName":"Americas"}},{"airportCode":"AEG","internationalAirport":false,"domesticAirport":false,"regionalAirport":false,"onlineIndicator":false,"eticketableAirport":false,"location":{"aboveSeaLevel":922,"latitude":1.23,"latitudeRadius":0.0241,"longitude":99.25,"longitudeRadius":1.7351,"latitudeDirection":"N","longitudeDirection":"E"},"airportName":"Aseki","city":{"cityCode":"AEK","cityName":"Aseki","timeZoneName":"Pacific/Saipan"},"country":{"countryCode":"PG","countryName":"Papua New Guinea"},"region":{"regionCode":"SP","regionName":"South Pacific"}},{"airportCode":"AEH","internationalAirport":false,"domesticAirport":false,"regionalAirport":false,"onlineIndicator":false,"eticketableAirport":false,"location":{"aboveSeaLevel":1788,"latitude":13.50,"latitudeRadius":0.2414,"longitude":20.50,"longitudeRadius":0.3636,"latitudeDirection":"N","longitudeDirection":"E"},"airportName":"Abecher","city":{"cityCode":"AEH","cityName":"Abecher","timeZoneName":"Africa/Algiers"},"country":{"countryCode":"TD","countryName":"Chad"},"region":{"regionCode":"AF","regionName":"Africa"}},{"airportCode":"AEK","internationalAirport":false,"domesticAirport":false,"regionalAirport":false,"onlineIndicator":false,"eticketableAirport":false,"location":{"aboveSeaLevel":-99999,"latitude":7.20,"latitudeRadius":-0.1280,"longitude":146.20,"longitudeRadius":2.5540,"latitudeDirection":"S","longitudeDirection":"E"},"airportName":"Aseki","city":{"cityCode":"AEK","cityName":"Aseki","timeZoneName":"Pacific/Saipan"},"country":{"countryCode":"PG","countryName":"Papua New Guinea"},"region":{"regionCode":"SP","regionName":"South Pacific"}},{"airportCode":"AEO","internationalAirport":false,"domesticAirport":false,"regionalAirport":false,"onlineIndicator":false,"eticketableAirport":false,"location":{"aboveSeaLevel":951,"latitude":16.43,"latitudeRadius":0.2918,"longitude":9.38,"longitudeRadius":-0.1681,"latitudeDirection":"N","longitudeDirection":"W"},"airportName":"Aioun El Atrouss","city":{"cityCode":"AEO","cityName":"Aioun El Atrouss","timeZoneName":"Africa/Nouakchott"},"country":{"countryCode":"MR","countryName":"Mauritania"},"region":{"regionCode":"AF","regionName":"Africa"}},{"airportCode":"AEP","internationalAirport":false,"domesticAirport":false,"regionalAirport":false,"onlineIndicator":true,"eticketableAirport":false,"location":{"aboveSeaLevel":20,"latitude":34.34,"latitudeRadius":-0.6033,"longitude":58.25,"longitudeRadius":-1.0196,"latitudeDirection":"S","longitudeDirection":"W"},"airportName":"Buenos Aires (Jorge Newbery)","city":{"cityCode":"BUE","cityName":"Buenos Aires","timeZoneName":"America/Buenos_Aires"},"country":{"countryCode":"AR","countryName":"Argentina"},"region":{"regionCode":"AM","regionName":"Americas"}},{"airportCode":"AER","internationalAirport":false,"domesticAirport":false,"regionalAirport":false,"onlineIndicator":true,"eticketableAirport":false,"location":{"aboveSeaLevel":0,"latitude":43.27,"latitudeRadius":0.7583,"longitude":39.56,"longitudeRadius":0.6970,"latitudeDirection":"N","longitudeDirection":"E"},"airportName":"Sochi","city":{"cityCode":"AER","cityName":"Sochi","timeZoneName":"Europe/Moscow"},"country":{"countryCode":"RU","countryName":"Russian Fed"},"region":{"regionCode":"EU","regionName":"Europe"}},{"airportCode":"AES","internationalAirport":false,"domesticAirport":false,"regionalAirport":false,"onlineIndicator":false,"eticketableAirport":false,"location":{"aboveSeaLevel":-99999,"latitude":62.28,"latitudeRadius":1.0902,"longitude":6.11,"longitudeRadius":0.1079,"latitudeDirection":"N","longitudeDirection":"E"},"airportName":"Aalesund","city":{"cityCode":"AES","cityName":"Aalesund","timeZoneName":"Europe/Oslo"},"country":{"countryCode":"NO","countryName":"Norway"},"region":{"regionCode":"EU","regionName":"Europe"}},{"airportCode":"AET","internationalAirport":false,"domesticAirport":false,"regionalAirport":false,"onlineIndicator":false,"eticketableAirport":false,"location":{"aboveSeaLevel":-99999,"latitude":66.30,"latitudeRadius":1.1606,"longitude":152.45,"longitudeRadius":-2.6660,"latitudeDirection":"N","longitudeDirection":"W"},"airportName":"Allakaket","city":{"cityCode":"AET","cityName":"Allakaket","timeZoneName":"America/Anchorage"},"country":{"countryCode":"US","countryName":"United States"},"region":{"regionCode":"AM","regionName":"Americas"}},{"airportCode":"AEX","internationalAirport":false,"domesticAirport":false,"regionalAirport":false,"onlineIndicator":true,"eticketableAirport":false,"location":{"aboveSeaLevel":500,"latitude":31.21,"latitudeRadius":0.5472,"longitude":92.35,"longitudeRadius":-1.6159,"latitudeDirection":"N","longitudeDirection":"W"},"airportName":"Alexandria","city":{"cityCode":"AEX","cityName":"Alexandria","timeZoneName":"America/Chicago"},"country":{"countryCode":"US","countryName":"United States"},"region":{"regionCode":"AM","regionName":"Americas"}},{"airportCode":"AEY","internationalAirport":false,"domesticAirport":false,"regionalAirport":false,"onlineIndicator":false,"eticketableAirport":false,"location":{"aboveSeaLevel":6,"latitude":65.39,"latitudeRadius":1.1458,"longitude":18.04,"longitudeRadius":-0.3153,"latitudeDirection":"N","longitudeDirection":"W"},"airportName":"Akureyri","city":{"cityCode":"AEY","cityName":"Akureyri","timeZoneName":"Atlantic/Reykjavik"},"country":{"countryCode":"IS","countryName":"Iceland"},"region":{"regionCode":"EU","regionName":"Europe"}},{"airportCode":"AFA","internationalAirport":false,"domesticAirport":false,"regionalAirport":false,"onlineIndicator":false,"eticketableAirport":false,"location":{"aboveSeaLevel":2447,"latitude":34.35,"latitudeRadius":-0.6036,"longitude":68.24,"longitudeRadius":-1.1938,"latitudeDirection":"S","longitudeDirection":"W"},"airportName":"San Rafael","city":{"cityCode":"AFA","cityName":"San Rafael","timeZoneName":"America/Buenos_Aires"},"country":{"countryCode":"AR","countryName":"Argentina"},"region":{"regionCode":"AM","regionName":"Americas"}},{"airportCode":"AFD","internationalAirport":false,"domesticAirport":false,"regionalAirport":false,"onlineIndicator":false,"eticketableAirport":false,"location":{"aboveSeaLevel":-99999,"latitude":33.36,"latitudeRadius":-0.5864,"longitude":26.54,"longitudeRadius":0.4695,"latitudeDirection":"S","longitudeDirection":"E"},"airportName":"Port Alfred","city":{"cityCode":"AFD","cityName":"Port Alfred","timeZoneName":"Africa/Johannesburg"},"country":{"countryCode":"ZA","countryName":"South Africa"},"region":{"regionCode":"AF","regionName":"Africa"}},{"airportCode":"AFL","internationalAirport":false,"domesticAirport":false,"regionalAirport":false,"onlineIndicator":false,"eticketableAirport":false,"location":{"aboveSeaLevel":0,"latitude":9.51,"latitudeRadius":-0.1719,"longitude":56.06,"longitudeRadius":-0.9791,"latitudeDirection":"S","longitudeDirection":"W"},"airportName":"Alta Floresta","city":{"cityCode":"AFL","cityName":"Alta Floresta","timeZoneName":"America/New_York"},"country":{"countryCode":"BR","countryName":"Brazil"},"region":{"regionCode":"AM","regionName":"Americas"}},{"airportCode":"AFR","internationalAirport":false,"domesticAirport":false,"regionalAirport":false,"onlineIndicator":false,"eticketableAirport":false,"location":{"aboveSeaLevel":-99999,"latitude":9.10,"latitudeRadius":-0.1600,"longitude":148.30,"longitudeRadius":2.5918,"latitudeDirection":"S","longitudeDirection":"E"},"airportName":"Afore","city":{"cityCode":"AFR","cityName":"Afore","timeZoneName":"Pacific/Saipan"},"country":{"countryCode":"PG","countryName":"Papua New Guinea"},"region":{"regionCode":"SP","regionName":"South Pacific"}},{"airportCode":"AFS","internationalAirport":false,"domesticAirport":false,"regionalAirport":false,"onlineIndicator":false,"eticketableAirport":false,"location":{"aboveSeaLevel":1430,"latitude":41.34,"latitudeRadius":0.7255,"longitude":64.12,"longitudeRadius":1.1205,"latitudeDirection":"N","longitudeDirection":"E"},"airportName":"Zarafshan","city":{"cityCode":"AFS","cityName":"Zarafshan","timeZoneName":"Asia/Tashkent"},"country":{"countryCode":"UZ","countryName":"Uzbekistan"},"region":{"regionCode":"AS","regionName":"Asia"}},{"airportCode":"AFT","internationalAirport":false,"domesticAirport":false,"regionalAirport":false,"onlineIndicator":false,"eticketableAirport":false,"location":{"aboveSeaLevel":10,"latitude":9.07,"latitudeRadius":-0.1591,"longitude":160.31,"longitudeRadius":2.8015,"latitudeDirection":"S","longitudeDirection":"E"},"airportName":"Afutara","city":{"cityCode":"AFT","cityName":"Afutara","timeZoneName":"Pacific/Noumea"},"country":{"countryCode":"SB","countryName":"Solomon Islands"},"region":{"regionCode":"SP","regionName":"South Pacific"}},{"airportCode":"AFW","internationalAirport":false,"domesticAirport":false,"regionalAirport":false,"onlineIndicator":true,"eticketableAirport":false,"location":{"aboveSeaLevel":-99999,"latitude":0.00,"latitudeRadius":0.0000,"longitude":0.00,"longitudeRadius":0.0000},"airportName":"Dallas Fort Worth Alliance","city":{"cityCode":"DFW","cityName":"Dallas Fort Worth","timeZoneName":"America/Chicago"},"country":{"countryCode":"US","countryName":"United States"},"region":{"regionCode":"AM","regionName":"Americas"}},{"airportCode":"AFX","internationalAirport":false,"domesticAirport":false,"regionalAirport":false,"onlineIndicator":false,"eticketableAirport":false,"location":{"aboveSeaLevel":3251,"latitude":33.03,"latitudeRadius":0.5768,"longitude":48.01,"longitudeRadius":0.8380,"latitudeDirection":"N","longitudeDirection":"E"},"airportName":"Sabzavar","city":{"cityCode":"AFX","cityName":"Sabzavar","timeZoneName":"Asia/Tehran"},"country":{"countryCode":"IR","countryName":"Iran"},"region":{"regionCode":"ME","regionName":"Middle East"}},{"airportCode":"AGA","internationalAirport":false,"domesticAirport":false,"regionalAirport":false,"onlineIndicator":true,"eticketableAirport":false,"location":{"aboveSeaLevel":88,"latitude":30.23,"latitudeRadius":0.5303,"longitude":9.33,"longitudeRadius":-0.1667,"latitudeDirection":"N","longitudeDirection":"W"},"airportName":"Agadir","city":{"cityCode":"AGA","cityName":"Agadir","timeZoneName":"Africa/Casablanca"},"country":{"countryCode":"MA","countryName":"Morocco"},"region":{"regionCode":"AF","regionName":"Africa"}},{"airportCode":"AGB","internationalAirport":false,"domesticAirport":false,"regionalAirport":false,"onlineIndicator":true,"eticketableAirport":false,"location":{"aboveSeaLevel":1000,"latitude":48.21,"latitudeRadius":0.8439,"longitude":10.54,"longitudeRadius":0.1902,"latitudeDirection":"N","longitudeDirection":"E"},"airportName":"Munich","city":{"cityCode":"MUC","cityName":"Munich","timeZoneName":"Europe/Berlin"},"country":{"countryCode":"DE","countryName":"Germany"},"region":{"regionCode":"EU","regionName":"Europe"}},{"airportCode":"AGE","internationalAirport":false,"domesticAirport":false,"regionalAirport":false,"onlineIndicator":false,"eticketableAirport":false,"location":{"aboveSeaLevel":-99999,"latitude":53.47,"latitudeRadius":0.9387,"longitude":7.54,"longitudeRadius":0.1379,"latitudeDirection":"N","longitudeDirection":"E"},"airportName":"Wangerooge","city":{"cityCode":"AGE","cityName":"Wangerooge","timeZoneName":"Europe/Berlin"},"country":{"countryCode":"DE","countryName":"Germany"},"region":{"regionCode":"EU","regionName":"Europe"}},{"airportCode":"AGF","internationalAirport":false,"domesticAirport":false,"regionalAirport":false,"onlineIndicator":false,"eticketableAirport":false,"location":{"aboveSeaLevel":203,"latitude":44.10,"latitudeRadius":0.7709,"longitude":0.35,"longitudeRadius":0.0102,"latitudeDirection":"N","longitudeDirection":"E"},"airportName":"Agen","city":{"cityCode":"AGF","cityName":"Agen","timeZoneName":"Europe/Paris"},"country":{"countryCode":"FR","countryName":"France"},"region":{"regionCode":"EU","regionName":"Europe"}},{"airportCode":"AGG","internationalAirport":false,"domesticAirport":false,"regionalAirport":false,"onlineIndicator":false,"eticketableAirport":false,"location":{"aboveSeaLevel":-99999,"latitude":4.04,"latitudeRadius":-0.0710,"longitude":144.04,"longitudeRadius":2.5144,"latitudeDirection":"S","longitudeDirection":"E"},"airportName":"Angoram","city":{"cityCode":"AGG","cityName":"Angoram","timeZoneName":"Pacific/Saipan"},"country":{"countryCode":"PG","countryName":"Papua New Guinea"},"region":{"regionCode":"SP","regionName":"South Pacific"}},{"airportCode":"AGH","internationalAirport":false,"domesticAirport":false,"regionalAirport":false,"onlineIndicator":false,"eticketableAirport":false,"location":{"aboveSeaLevel":65,"latitude":56.17,"latitudeRadius":0.9823,"longitude":12.51,"longitudeRadius":0.2243,"latitudeDirection":"N","longitudeDirection":"E"},"airportName":"Helsingborg","city":{"cityCode":"AGH","cityName":"Helsingborg","timeZoneName":"Europe/Stockholm"},"country":{"countryCode":"SE","countryName":"Sweden"},"region":{"regionCode":"EU","regionName":"Europe"}},{"airportCode":"AGJ","internationalAirport":false,"domesticAirport":false,"regionalAirport":false,"onlineIndicator":false,"eticketableAirport":false,"location":{"aboveSeaLevel":-99999,"latitude":26.35,"latitudeRadius":0.4640,"longitude":127.13,"longitudeRadius":2.2204,"latitudeDirection":"N","longitudeDirection":"E"},"airportName":"Aguni","city":{"cityCode":"AGJ","cityName":"Aguni","timeZoneName":"Asia/Tokyo"},"country":{"countryCode":"JP","countryName":"Japan"},"region":{"regionCode":"AS","regionName":"Asia"}},{"airportCode":"AGK","internationalAirport":false,"domesticAirport":false,"regionalAirport":false,"onlineIndicator":false,"eticketableAirport":false,"location":{"aboveSeaLevel":-99999,"latitude":6.28,"latitudeRadius":-0.1129,"longitude":143.56,"longitudeRadius":2.5121,"latitudeDirection":"S","longitudeDirection":"E"},"airportName":"Kagua","city":{"cityCode":"AGK","cityName":"Kagua","timeZoneName":"Pacific/Saipan"},"country":{"countryCode":"PG","countryName":"Papua New Guinea"},"region":{"regionCode":"SP","regionName":"South Pacific"}},{"airportCode":"AGL","internationalAirport":false,"domesticAirport":false,"regionalAirport":false,"onlineIndicator":false,"eticketableAirport":false,"location":{"aboveSeaLevel":-99999,"latitude":9.22,"latitudeRadius":-0.1635,"longitude":149.10,"longitudeRadius":2.6035,"latitudeDirection":"S","longitudeDirection":"E"},"airportName":"Waningela","city":{"cityCode":"AGL","cityName":"Waningela","timeZoneName":"Pacific/Saipan"},"country":{"countryCode":"PG","countryName":"Papua New Guinea"},"region":{"regionCode":"SP","regionName":"South Pacific"}},{"airportCode":"AGM","internationalAirport":false,"domesticAirport":false,"regionalAirport":false,"onlineIndicator":false,"eticketableAirport":false,"location":{"aboveSeaLevel":-99999,"latitude":65.35,"latitudeRadius":1.1446,"longitude":38.00,"longitudeRadius":-0.6632,"latitudeDirection":"N","longitudeDirection":"W"},"airportName":"Angmagssalik","city":{"cityCode":"AGM","cityName":"Angmagssalik","timeZoneName":"America/Godthab"},"country":{"countryCode":"GL","countryName":"Greenland"},"region":{"regionCode":"EU","regionName":"Europe"}},{"airportCode":"AGN","internationalAirport":false,"domesticAirport":false,"regionalAirport":false,"onlineIndicator":false,"eticketableAirport":false,"location":{"aboveSeaLevel":-99999,"latitude":57.30,"latitudeRadius":1.0036,"longitude":134.35,"longitudeRadius":-2.3489,"latitudeDirection":"N","longitudeDirection":"W"},"airportName":"Angoon","city":{"cityCode":"AGN","cityName":"Angoon","timeZoneName":"America/Anchorage"},"country":{"countryCode":"US","countryName":"United States"},"region":{"regionCode":"AM","regionName":"Americas"}},{"airportCode":"AGP","internationalAirport":false,"domesticAirport":false,"regionalAirport":false,"onlineIndicator":true,"eticketableAirport":false,"location":{"aboveSeaLevel":52,"latitude":36.40,"latitudeRadius":0.6400,"longitude":4.30,"longitudeRadius":-0.0785,"latitudeDirection":"N","longitudeDirection":"W"},"airportName":"Malaga","city":{"cityCode":"AGP","cityName":"Malaga","timeZoneName":"Europe/Madrid"},"country":{"countryCode":"ES","countryName":"Spain"},"region":{"regionCode":"EU","regionName":"Europe"}},{"airportCode":"AGR","internationalAirport":false,"domesticAirport":false,"regionalAirport":false,"onlineIndicator":false,"eticketableAirport":false,"location":{"aboveSeaLevel":551,"latitude":27.09,"latitudeRadius":0.4739,"longitude":77.58,"longitudeRadius":1.3608,"latitudeDirection":"N","longitudeDirection":"E"},"airportName":"Agra","city":{"cityCode":"AGR","cityName":"Agra","timeZoneName":"Asia/Calcutta"},"country":{"countryCode":"IN","countryName":"India"},"region":{"regionCode":"AS","regionName":"Asia"}},{"airportCode":"AGS","internationalAirport":false,"domesticAirport":false,"regionalAirport":false,"onlineIndicator":true,"eticketableAirport":false,"location":{"aboveSeaLevel":145,"latitude":33.22,"latitudeRadius":0.5824,"longitude":81.57,"longitudeRadius":-1.4303,"latitudeDirection":"N","longitudeDirection":"W"},"airportName":"Augusta","city":{"cityCode":"AGS","cityName":"Augusta","timeZoneName":"America/New_York"},"country":{"countryCode":"US","countryName":"United States"},"region":{"regionCode":"AM","regionName":"Americas"}},{"airportCode":"AGT","internationalAirport":false,"domesticAirport":false,"regionalAirport":false,"onlineIndicator":true,"eticketableAirport":false,"location":{"aboveSeaLevel":-99999,"latitude":0.00,"latitudeRadius":0.0000,"longitude":0.00,"longitudeRadius":0.0000},"airportName":"Ciudad Del Este","city":{"cityCode":"AGT","cityName":"Ciudad Del Este","timeZoneName":"America/Asuncion"},"country":{"countryCode":"PY","countryName":"Paraguay"},"region":{"regionCode":"AM","regionName":"Americas"}},{"airportCode":"AGU","internationalAirport":false,"domesticAirport":false,"regionalAirport":false,"onlineIndicator":false,"eticketableAirport":false,"location":{"aboveSeaLevel":6160,"latitude":21.42,"latitudeRadius":0.3787,"longitude":102.19,"longitudeRadius":-1.7858,"latitudeDirection":"N","longitudeDirection":"W"},"airportName":"Aguascalientes","city":{"cityCode":"AGU","cityName":"Aguascalientes","timeZoneName":"America/Mexico_City"},"country":{"countryCode":"MX","countryName":"Mexico"},"region":{"regionCode":"AM","regionName":"Americas"}},{"airportCode":"AGV","internationalAirport":false,"domesticAirport":false,"regionalAirport":false,"onlineIndicator":false,"eticketableAirport":false,"location":{"aboveSeaLevel":640,"latitude":9.33,"latitudeRadius":0.1667,"longitude":69.14,"longitudeRadius":-1.2083,"latitudeDirection":"N","longitudeDirection":"W"},"airportName":"Acarigua","city":{"cityCode":"AGV","cityName":"Acarigua","timeZoneName":"America/Caracas"},"country":{"countryCode":"VE","countryName":"Venezuela"},"region":{"regionCode":"AM","regionName":"Americas"}},{"airportCode":"AGX","internationalAirport":false,"domesticAirport":false,"regionalAirport":false,"onlineIndicator":false,"eticketableAirport":false,"location":{"aboveSeaLevel":-99999,"latitude":10.50,"latitudeRadius":0.1891,"longitude":72.12,"longitudeRadius":1.2601,"latitudeDirection":"N","longitudeDirection":"E"},"airportName":"Agatti Island","city":{"cityCode":"AGX","cityName":"Agatti Island","timeZoneName":"Asia/Calcutta"},"country":{"countryCode":"IN","countryName":"India"},"region":{"regionCode":"AS","regionName":"Asia"}},{"airportCode":"AGY","internationalAirport":false,"domesticAirport":false,"regionalAirport":false,"onlineIndicator":false,"eticketableAirport":false,"location":{"aboveSeaLevel":-99999,"latitude":16.00,"latitudeRadius":-0.2793,"longitude":128.50,"longitudeRadius":2.2486,"latitudeDirection":"S","longitudeDirection":"E"},"airportName":"Argyle Downs","city":{"cityCode":"AGY","cityName":"Argyle Downs","timeZoneName":"Australia/Perth"},"country":{"countryCode":"AU","countryName":"Australia"},"region":{"regionCode":"AU","regionName":"Australia"}},{"airportCode":"AGZ","internationalAirport":false,"domesticAirport":false,"regionalAirport":false,"onlineIndicator":false,"eticketableAirport":false,"location":{"aboveSeaLevel":-99999,"latitude":29.03,"latitudeRadius":-0.5070,"longitude":18.51,"longitudeRadius":0.3290,"latitudeDirection":"S","longitudeDirection":"E"},"airportName":"Aggeneys","city":{"cityCode":"AGZ","cityName":"Aggeneys","timeZoneName":"Africa/Johannesburg"},"country":{"countryCode":"ZA","countryName":"South Africa"},"region":{"regionCode":"AF","regionName":"Africa"}},{"airportCode":"AHB","internationalAirport":false,"domesticAirport":false,"regionalAirport":false,"onlineIndicator":true,"eticketableAirport":false,"location":{"aboveSeaLevel":6857,"latitude":18.14,"latitudeRadius":0.3182,"longitude":42.39,"longitudeRadius":0.7444,"latitudeDirection":"N","longitudeDirection":"E"},"airportName":"Abha","city":{"cityCode":"AHB","cityName":"Abha","timeZoneName":"Asia/Riyadh"},"country":{"countryCode":"SA","countryName":"Saudi Arabia"},"region":{"regionCode":"ME","regionName":"Middle East"}},{"airportCode":"AHD","internationalAirport":false,"domesticAirport":false,"regionalAirport":false,"onlineIndicator":false,"eticketableAirport":false,"location":{"aboveSeaLevel":24,"latitude":17.22,"latitudeRadius":-0.3031,"longitude":123.39,"longitudeRadius":2.1581,"latitudeDirection":"S","longitudeDirection":"E"},"airportName":"Ardmore","city":{"cityCode":"ADM","cityName":"Ardmore","timeZoneName":"America/Chicago"},"country":{"countryCode":"US","countryName":"United States"},"region":{"regionCode":"AM","regionName":"Americas"}},{"airportCode":"AHE","internationalAirport":false,"domesticAirport":false,"regionalAirport":false,"onlineIndicator":false,"eticketableAirport":false,"location":{"aboveSeaLevel":0,"latitude":14.24,"latitudeRadius":-0.2513,"longitude":146.15,"longitudeRadius":-2.5525,"latitudeDirection":"S","longitudeDirection":"W"},"airportName":"Ahe","city":{"cityCode":"AHE","cityName":"Ahe","timeZoneName":"Pacific/Tahiti"},"country":{"countryCode":"PF","countryName":"French Polynesia"},"region":{"regionCode":"SP","regionName":"South Pacific"}},{"airportCode":"AHH","internationalAirport":false,"domesticAirport":false,"regionalAirport":false,"onlineIndicator":false,"eticketableAirport":false,"location":{"aboveSeaLevel":-99999,"latitude":45.18,"latitudeRadius":0.7906,"longitude":92.21,"longitudeRadius":-1.6118,"latitudeDirection":"N","longitudeDirection":"W"},"airportName":"Amery","city":{"cityCode":"AHH","cityName":"Amery","timeZoneName":"America/Chicago"},"country":{"countryCode":"US","countryName":"United States"},"region":{"regionCode":"AM","regionName":"Americas"}},{"airportCode":"AHI","internationalAirport":false,"domesticAirport":false,"regionalAirport":false,"onlineIndicator":false,"eticketableAirport":false,"location":{"aboveSeaLevel":-99999,"latitude":3.19,"latitudeRadius":-0.0579,"longitude":128.56,"longitudeRadius":2.2503,"latitudeDirection":"S","longitudeDirection":"E"},"airportName":"Amahai","city":{"cityCode":"AHI","cityName":"Amahai","timeZoneName":"Asia/Jayapura"},"country":{"countryCode":"ID","countryName":"Indonesia"},"region":{"regionCode":"AS","regionName":"Asia"}},{"airportCode":"AHL","internationalAirport":false,"domesticAirport":false,"regionalAirport":false,"onlineIndicator":false,"eticketableAirport":false,"location":{"aboveSeaLevel":-99999,"latitude":2.33,"latitudeRadius":0.0445,"longitude":59.16,"longitudeRadius":-1.0344,"latitudeDirection":"N","longitudeDirection":"W"},"airportName":"Aishalton","city":{"cityCode":"AHL","cityName":"Aishalton","timeZoneName":"America/New_York"},"country":{"countryCode":"GY","countryName":"Guyana"},"region":{"regionCode":"AM","regionName":"Americas"}},{"airportCode":"AHN","internationalAirport":false,"domesticAirport":false,"regionalAirport":false,"onlineIndicator":false,"eticketableAirport":false,"location":{"aboveSeaLevel":-99999,"latitude":33.57,"latitudeRadius":0.5925,"longitude":83.24,"longitudeRadius":-1.4556,"latitudeDirection":"N","longitudeDirection":"W"},"airportName":"Athens","city":{"cityCode":"AHN","cityName":"Athens","timeZoneName":"America/New_York"},"country":{"countryCode":"US","countryName":"United States"},"region":{"regionCode":"AM","regionName":"Americas"}},{"airportCode":"AHO","internationalAirport":false,"domesticAirport":false,"regionalAirport":false,"onlineIndicator":true,"eticketableAirport":false,"location":{"aboveSeaLevel":88,"latitude":40.37,"latitudeRadius":0.7089,"longitude":8.17,"longitudeRadius":0.1446,"latitudeDirection":"N","longitudeDirection":"E"},"airportName":"Alghero","city":{"cityCode":"AHO","cityName":"Alghero","timeZoneName":"Europe/Rome"},"country":{"countryCode":"IT","countryName":"Italy"},"region":{"regionCode":"EU","regionName":"Europe"}},{"airportCode":"AHS","internationalAirport":false,"domesticAirport":false,"regionalAirport":false,"onlineIndicator":false,"eticketableAirport":false,"location":{"aboveSeaLevel":-99999,"latitude":15.29,"latitudeRadius":0.2702,"longitude":84.28,"longitudeRadius":-1.4742,"latitudeDirection":"N","longitudeDirection":"W"},"airportName":"Ahuas","city":{"cityCode":"AHS","cityName":"Ahuas","timeZoneName":"America/Tegucigalpa"},"country":{"countryCode":"HN","countryName":"Honduras"},"region":{"regionCode":"AM","regionName":"Americas"}},{"airportCode":"AHU","internationalAirport":false,"domesticAirport":false,"regionalAirport":false,"onlineIndicator":false,"eticketableAirport":false,"location":{"aboveSeaLevel":89,"latitude":35.11,"latitudeRadius":0.6141,"longitude":3.50,"longitudeRadius":-0.0669,"latitudeDirection":"N","longitudeDirection":"W"},"airportName":"Al Hoceima","city":{"cityCode":"AHU","cityName":"Al Hoceima","timeZoneName":"Africa/Casablanca"},"country":{"countryCode":"MA","countryName":"Morocco"},"region":{"regionCode":"AF","regionName":"Africa"}},{"airportCode":"AIA","internationalAirport":false,"domesticAirport":false,"regionalAirport":false,"onlineIndicator":false,"eticketableAirport":false,"location":{"aboveSeaLevel":3929,"latitude":42.03,"latitudeRadius":0.7339,"longitude":102.48,"longitudeRadius":-1.7942,"latitudeDirection":"N","longitudeDirection":"W"},"airportName":"Alliance","city":{"cityCode":"AIA","cityName":"Alliance","timeZoneName":"America/Chicago"},"country":{"countryCode":"US","countryName":"United States"},"region":{"regionCode":"AM","regionName":"Americas"}},{"airportCode":"AIB","internationalAirport":false,"domesticAirport":false,"regionalAirport":false,"onlineIndicator":false,"eticketableAirport":false,"location":{"aboveSeaLevel":-99999,"latitude":56.14,"latitudeRadius":0.9815,"longitude":132.23,"longitudeRadius":-2.3105,"latitudeDirection":"N","longitudeDirection":"W"},"airportName":"Anita Bay","city":{"cityCode":"AIB","cityName":"Anita Bay","timeZoneName":"America/Anchorage"},"country":{"countryCode":"US","countryName":"United States"},"region":{"regionCode":"AM","regionName":"Americas"}},{"airportCode":"AIC","internationalAirport":false,"domesticAirport":false,"regionalAirport":false,"onlineIndicator":false,"eticketableAirport":false,"location":{"aboveSeaLevel":-99999,"latitude":7.06,"latitudeRadius":0.1239,"longitude":171.14,"longitudeRadius":2.9886,"latitudeDirection":"N","longitudeDirection":"E"},"airportName":"Airok","city":{"cityCode":"AIC","cityName":"Airok","timeZoneName":"Pacific/Auckland"},"country":{"countryCode":"MH","countryName":"Marshall Islands"},"region":{"regionCode":"SP","regionName":"South Pacific"}},{"airportCode":"AIE","internationalAirport":false,"domesticAirport":false,"regionalAirport":false,"onlineIndicator":false,"eticketableAirport":false,"location":{"aboveSeaLevel":-99999,"latitude":5.08,"latitudeRadius":-0.0896,"longitude":144.45,"longitudeRadius":2.5264,"latitudeDirection":"S","longitudeDirection":"E"},"airportName":"Aiome","city":{"cityCode":"AIE","cityName":"Aiome","timeZoneName":"Pacific/Saipan"},"country":{"countryCode":"PG","countryName":"Papua New Guinea"},"region":{"regionCode":"SP","regionName":"South Pacific"}},{"airportCode":"AIF","internationalAirport":false,"domesticAirport":false,"regionalAirport":false,"onlineIndicator":false,"eticketableAirport":false,"location":{"aboveSeaLevel":-99999,"latitude":22.37,"latitudeRadius":-0.3947,"longitude":50.25,"longitudeRadius":-0.8799,"latitudeDirection":"S","longitudeDirection":"W"},"airportName":"Assis","city":{"cityCode":"AIF","cityName":"Assis","timeZoneName":"America/Sao_Paulo"},"country":{"countryCode":"BR","countryName":"Brazil"},"region":{"regionCode":"AM","regionName":"Americas"}},{"airportCode":"AIM","internationalAirport":false,"domesticAirport":false,"regionalAirport":false,"onlineIndicator":false,"eticketableAirport":false,"location":{"aboveSeaLevel":-99999,"latitude":10.35,"latitudeRadius":0.1847,"longitude":169.53,"longitudeRadius":2.9650,"latitudeDirection":"N","longitudeDirection":"E"},"airportName":"Ailuk","city":{"cityCode":"AIM","cityName":"Ailuk","timeZoneName":"Pacific/Auckland"},"country":{"countryCode":"MH","countryName":"Marshall Islands"},"region":{"regionCode":"SP","regionName":"South Pacific"}},{"airportCode":"AIN","internationalAirport":false,"domesticAirport":false,"regionalAirport":false,"onlineIndicator":false,"eticketableAirport":false,"location":{"aboveSeaLevel":448,"latitude":70.36,"latitudeRadius":1.2322,"longitude":159.51,"longitudeRadius":-2.7899,"latitudeDirection":"N","longitudeDirection":"W"},"airportName":"Wainwright","city":{"cityCode":"AIN","cityName":"Wainwright","timeZoneName":"America/Anchorage"},"country":{"countryCode":"US","countryName":"United States"},"region":{"regionCode":"AM","regionName":"Americas"}},{"airportCode":"AIO","internationalAirport":false,"domesticAirport":false,"regionalAirport":false,"onlineIndicator":false,"eticketableAirport":false,"location":{"aboveSeaLevel":-99999,"latitude":41.24,"latitudeRadius":0.7226,"longitude":95.01,"longitudeRadius":-1.6584,"latitudeDirection":"N","longitudeDirection":"W"},"airportName":"Atlantic","city":{"cityCode":"AIO","cityName":"Atlantic","timeZoneName":"America/Chicago"},"country":{"countryCode":"US","countryName":"United States"},"region":{"regionCode":"AM","regionName":"Americas"}},{"airportCode":"AIP","internationalAirport":false,"domesticAirport":false,"regionalAirport":false,"onlineIndicator":false,"eticketableAirport":false,"location":{"aboveSeaLevel":-99999,"latitude":7.30,"latitudeRadius":0.1309,"longitude":168.40,"longitudeRadius":2.9438,"latitudeDirection":"N","longitudeDirection":"E"},"airportName":"Ailinglapalap","city":{"cityCode":"AIP","cityName":"Ailinglapalap","timeZoneName":"Pacific/Auckland"},"country":{"countryCode":"MH","countryName":"Marshall Islands"},"region":{"regionCode":"SP","regionName":"South Pacific"}},{"airportCode":"AIR","internationalAirport":false,"domesticAirport":false,"regionalAirport":false,"onlineIndicator":false,"eticketableAirport":false,"location":{"aboveSeaLevel":0,"latitude":10.15,"latitudeRadius":-0.1789,"longitude":59.23,"longitudeRadius":-1.0364,"latitudeDirection":"S","longitudeDirection":"W"},"airportName":"Aripuana","city":{"cityCode":"AIR","cityName":"Aripuana","timeZoneName":"America/New_York"},"country":{"countryCode":"BR","countryName":"Brazil"},"region":{"regionCode":"AM","regionName":"Americas"}},{"airportCode":"AIS","internationalAirport":false,"domesticAirport":false,"regionalAirport":false,"onlineIndicator":false,"eticketableAirport":false,"location":{"aboveSeaLevel":-99999,"latitude":2.39,"latitudeRadius":-0.0463,"longitude":176.54,"longitudeRadius":3.0875,"latitudeDirection":"S","longitudeDirection":"E"},"airportName":"Arorae Island","city":{"cityCode":"AIS","cityName":"Arorae Island","timeZoneName":"Pacific/Auckland"},"country":{"countryCode":"KI","countryName":"Kiribati"},"region":{"regionCode":"SP","regionName":"South Pacific"}},{"airportCode":"AIT","internationalAirport":false,"domesticAirport":false,"regionalAirport":false,"onlineIndicator":false,"eticketableAirport":false,"location":{"aboveSeaLevel":-99999,"latitude":18.52,"latitudeRadius":-0.3293,"longitude":159.46,"longitudeRadius":-2.7885,"latitudeDirection":"S","longitudeDirection":"W"},"airportName":"Aitutaki","city":{"cityCode":"AIT","cityName":"Aitutaki","timeZoneName":"Pacific/Rarotonga"},"country":{"countryCode":"CK","countryName":"Cook Islands"},"region":{"regionCode":"SP","regionName":"South Pacific"}},{"airportCode":"AIU","internationalAirport":false,"domesticAirport":false,"regionalAirport":false,"onlineIndicator":false,"eticketableAirport":false,"location":{"aboveSeaLevel":-99999,"latitude":20.00,"latitudeRadius":-0.3491,"longitude":158.07,"longitudeRadius":-2.7597,"latitudeDirection":"S","longitudeDirection":"W"},"airportName":"Atiu","city":{"cityCode":"AIU","cityName":"Atiu","timeZoneName":"Pacific/Rarotonga"},"country":{"countryCode":"CK","countryName":"Cook Islands"},"region":{"regionCode":"SP","regionName":"South Pacific"}},{"airportCode":"AIY","internationalAirport":false,"domesticAirport":false,"regionalAirport":false,"onlineIndicator":false,"eticketableAirport":false,"location":{"aboveSeaLevel":-99999,"latitude":39.23,"latitudeRadius":0.6874,"longitude":74.27,"longitudeRadius":-1.2994,"latitudeDirection":"N","longitudeDirection":"W"},"airportName":"Atlantic City","city":{"cityCode":"AIY","cityName":"Atlantic City","timeZoneName":"America/New_York"},"country":{"countryCode":"US","countryName":"United States"},"region":{"regionCode":"AM","regionName":"Americas"}},{"airportCode":"AIZ","internationalAirport":false,"domesticAirport":false,"regionalAirport":false,"onlineIndicator":false,"eticketableAirport":false,"location":{"aboveSeaLevel":869,"latitude":38.05,"latitudeRadius":0.6647,"longitude":92.32,"longitudeRadius":-1.6150,"latitudeDirection":"N","longitudeDirection":"W"},"airportName":"Lake Of Ozarks","city":{"cityCode":"AIZ","cityName":"Lake Of Ozarks","timeZoneName":"America/Chicago"},"country":{"countryCode":"US","countryName":"United States"},"region":{"regionCode":"AM","regionName":"Americas"}},{"airportCode":"AJA","internationalAirport":false,"domesticAirport":false,"regionalAirport":false,"onlineIndicator":false,"eticketableAirport":false,"location":{"aboveSeaLevel":16,"latitude":41.55,"latitudeRadius":0.7316,"longitude":8.48,"longitudeRadius":0.1536,"latitudeDirection":"N","longitudeDirection":"E"},"airportName":"Ajaccio Corsica","city":{"cityCode":"AJA","cityName":"Ajaccio Corsica","timeZoneName":"Europe/Paris"},"country":{"countryCode":"FR","countryName":"France"},"region":{"regionCode":"EU","regionName":"Europe"}},{"airportCode":"AJF","internationalAirport":false,"domesticAirport":false,"regionalAirport":false,"onlineIndicator":false,"eticketableAirport":false,"location":{"aboveSeaLevel":-99999,"latitude":29.47,"latitudeRadius":0.5198,"longitude":39.52,"longitudeRadius":0.6958,"latitudeDirection":"N","longitudeDirection":"E"},"airportName":"Jouf","city":{"cityCode":"AJF","cityName":"Jouf","timeZoneName":"Asia/Riyadh"},"country":{"countryCode":"SA","countryName":"Saudi Arabia"},"region":{"regionCode":"ME","regionName":"Middle East"}},{"airportCode":"AJI","internationalAirport":false,"domesticAirport":false,"regionalAirport":false,"onlineIndicator":false,"eticketableAirport":false,"location":{"aboveSeaLevel":0,"latitude":39.39,"latitudeRadius":0.6920,"longitude":43.01,"longitudeRadius":0.7508,"latitudeDirection":"N","longitudeDirection":"E"},"airportName":"Agri","city":{"cityCode":"AJI","cityName":"Agri","timeZoneName":"Europe/Istanbul"},"country":{"countryCode":"TR","countryName":"Turkey"},"region":{"regionCode":"EU","regionName":"Europe"}},{"airportCode":"AJL","internationalAirport":false,"domesticAirport":false,"regionalAirport":false,"onlineIndicator":false,"eticketableAirport":false,"location":{"aboveSeaLevel":-99999,"latitude":23.45,"latitudeRadius":0.4145,"longitude":92.45,"longitudeRadius":1.6188,"latitudeDirection":"N","longitudeDirection":"E"},"airportName":"Aizawl","city":{"cityCode":"AJL","cityName":"Aizawl","timeZoneName":"Asia/Calcutta"},"country":{"countryCode":"IN","countryName":"India"},"region":{"regionCode":"AS","regionName":"Asia"}},{"airportCode":"AJN","internationalAirport":false,"domesticAirport":false,"regionalAirport":false,"onlineIndicator":false,"eticketableAirport":false,"location":{"aboveSeaLevel":-99999,"latitude":12.08,"latitudeRadius":-0.2118,"longitude":44.26,"longitudeRadius":0.7755,"latitudeDirection":"S","longitudeDirection":"E"},"airportName":"Anjouan","city":{"cityCode":"AJN","cityName":"Anjouan","timeZoneName":"Indian/Mayotte"},"country":{"countryCode":"KM","countryName":"Comoros"},"region":{"regionCode":"AF","regionName":"Africa"}},{"airportCode":"AJO","internationalAirport":false,"domesticAirport":false,"regionalAirport":false,"onlineIndicator":false,"eticketableAirport":false,"location":{"aboveSeaLevel":-99999,"latitude":29.46,"latitudeRadius":0.5195,"longitude":40.05,"longitudeRadius":0.6996,"latitudeDirection":"N","longitudeDirection":"E"},"airportName":"Al Jouf","city":{"cityCode":"AJO","cityName":"Al Jouf","timeZoneName":"Asia/Aden"},"country":{"countryCode":"YE","countryName":"Yemen Republic Of"},"region":{"regionCode":"EU","regionName":"Europe"}},{"airportCode":"AJR","internationalAirport":false,"domesticAirport":false,"regionalAirport":false,"onlineIndicator":false,"eticketableAirport":false,"location":{"aboveSeaLevel":-99999,"latitude":65.37,"latitudeRadius":1.1452,"longitude":19.01,"longitudeRadius":0.3319,"latitudeDirection":"N","longitudeDirection":"E"},"airportName":"Arvidsjaur","city":{"cityCode":"AJR","cityName":"Arvidsjaur","timeZoneName":"Europe/Stockholm"},"country":{"countryCode":"SE","countryName":"Sweden"},"region":{"regionCode":"EU","regionName":"Europe"}},{"airportCode":"AJU","internationalAirport":false,"domesticAirport":false,"regionalAirport":false,"onlineIndicator":true,"eticketableAirport":false,"location":{"aboveSeaLevel":26,"latitude":10.59,"latitudeRadius":-0.1917,"longitude":37.04,"longitudeRadius":-0.6469,"latitudeDirection":"S","longitudeDirection":"W"},"airportName":"Aracaju","city":{"cityCode":"AJU","cityName":"Aracaju","timeZoneName":"America/Sao_Paulo"},"country":{"countryCode":"BR","countryName":"Brazil"},"region":{"regionCode":"AM","regionName":"Americas"}},{"airportCode":"AJY","internationalAirport":false,"domesticAirport":false,"regionalAirport":false,"onlineIndicator":false,"eticketableAirport":false,"location":{"aboveSeaLevel":1657,"latitude":16.57,"latitudeRadius":0.2958,"longitude":7.59,"longitudeRadius":0.1393,"latitudeDirection":"N","longitudeDirection":"E"},"airportName":"Agades","city":{"cityCode":"AJY","cityName":"Agades","timeZoneName":"Africa/Algiers"},"country":{"countryCode":"NE","countryName":"Niger"},"region":{"regionCode":"AF","regionName":"Africa"}},{"airportCode":"AKA","internationalAirport":false,"domesticAirport":false,"regionalAirport":false,"onlineIndicator":false,"eticketableAirport":false,"location":{"aboveSeaLevel":-99999,"latitude":32.40,"latitudeRadius":0.5701,"longitude":109.12,"longitudeRadius":1.9059,"latitudeDirection":"N","longitudeDirection":"E"},"airportName":"Ankang","city":{"cityCode":"AKA","cityName":"Ankang","timeZoneName":"Asia/Shanghai"},"country":{"countryCode":"CN","countryName":"China"},"region":{"regionCode":"AS","regionName":"Asia"}},{"airportCode":"AKB","internationalAirport":false,"domesticAirport":false,"regionalAirport":false,"onlineIndicator":false,"eticketableAirport":false,"location":{"aboveSeaLevel":-99999,"latitude":52.14,"latitudeRadius":0.9116,"longitude":174.15,"longitudeRadius":-3.0412,"latitudeDirection":"N","longitudeDirection":"W"},"airportName":"Atka","city":{"cityCode":"AKB","cityName":"Atka","timeZoneName":"America/Anchorage"},"country":{"countryCode":"US","countryName":"United States"},"region":{"regionCode":"AM","regionName":"Americas"}},{"airportCode":"AKD","internationalAirport":false,"domesticAirport":false,"regionalAirport":false,"onlineIndicator":false,"eticketableAirport":false,"location":{"aboveSeaLevel":-99999,"latitude":0.00,"latitudeRadius":0.0000,"longitude":0.00,"longitudeRadius":0.0000},"airportName":"Akola","city":{"cityCode":"AKD","cityName":"Akola","timeZoneName":"Asia/Calcutta"},"country":{"countryCode":"IN","countryName":"India"},"region":{"regionCode":"AS","regionName":"Asia"}},{"airportCode":"AKE","internationalAirport":false,"domesticAirport":false,"regionalAirport":false,"onlineIndicator":false,"eticketableAirport":false,"location":{"aboveSeaLevel":-99999,"latitude":1.10,"latitudeRadius":-0.0204,"longitude":13.52,"longitudeRadius":0.2420,"latitudeDirection":"S","longitudeDirection":"E"},"airportName":"Akieni","city":{"cityCode":"AKE","cityName":"Akieni","timeZoneName":"Africa/Algiers"},"country":{"countryCode":"GA","countryName":"Gabon"},"region":{"regionCode":"AF","regionName":"Africa"}},{"airportCode":"AKF","internationalAirport":false,"domesticAirport":false,"regionalAirport":false,"onlineIndicator":false,"eticketableAirport":false,"location":{"aboveSeaLevel":1367,"latitude":24.10,"latitudeRadius":0.4218,"longitude":23.18,"longitudeRadius":0.4067,"latitudeDirection":"N","longitudeDirection":"E"},"airportName":"Kufrah","city":{"cityCode":"AKF","cityName":"Kufrah","timeZoneName":"Africa/Tripoli"},"country":{"countryCode":"LY","countryName":"Libya"},"region":{"regionCode":"AF","regionName":"Africa"}},{"airportCode":"AKG","internationalAirport":false,"domesticAirport":false,"regionalAirport":false,"onlineIndicator":false,"eticketableAirport":false,"location":{"aboveSeaLevel":-99999,"latitude":3.34,"latitudeRadius":-0.0623,"longitude":142.12,"longitudeRadius":2.4819,"latitudeDirection":"S","longitudeDirection":"E"},"airportName":"Anguganak","city":{"cityCode":"AKG","cityName":"Anguganak","timeZoneName":"Pacific/Saipan"},"country":{"countryCode":"PG","countryName":"Papua New Guinea"},"region":{"regionCode":"SP","regionName":"South Pacific"}},{"airportCode":"AKI","internationalAirport":false,"domesticAirport":false,"regionalAirport":false,"onlineIndicator":false,"eticketableAirport":false,"location":{"aboveSeaLevel":-99999,"latitude":60.51,"latitudeRadius":1.0620,"longitude":161.13,"longitudeRadius":-2.8138,"latitudeDirection":"N","longitudeDirection":"W"},"airportName":"Akiak","city":{"cityCode":"AKI","cityName":"Akiak","timeZoneName":"America/Anchorage"},"country":{"countryCode":"US","countryName":"United States"},"region":{"regionCode":"AM","regionName":"Americas"}},{"airportCode":"AKJ","internationalAirport":false,"domesticAirport":false,"regionalAirport":false,"onlineIndicator":true,"eticketableAirport":false,"location":{"aboveSeaLevel":682,"latitude":43.40,"latitudeRadius":0.7621,"longitude":142.27,"longitudeRadius":2.4862,"latitudeDirection":"N","longitudeDirection":"E"},"airportName":"Asahikawa","city":{"cityCode":"AKJ","cityName":"Asahikawa","timeZoneName":"Asia/Tokyo"},"country":{"countryCode":"JP","countryName":"Japan"},"region":{"regionCode":"AS","regionName":"Asia"}},{"airportCode":"AKK","internationalAirport":false,"domesticAirport":false,"regionalAirport":false,"onlineIndicator":false,"eticketableAirport":false,"location":{"aboveSeaLevel":-99999,"latitude":56.58,"latitudeRadius":0.9943,"longitude":154.18,"longitudeRadius":-2.6930,"latitudeDirection":"N","longitudeDirection":"W"},"airportName":"Akhiok","city":{"cityCode":"AKK","cityName":"Akhiok","timeZoneName":"America/Anchorage"},"country":{"countryCode":"US","countryName":"United States"},"region":{"regionCode":"AM","regionName":"Americas"}},{"airportCode":"AKL","internationalAirport":true,"domesticAirport":false,"regionalAirport":false,"onlineIndicator":true,"eticketableAirport":true,"location":{"aboveSeaLevel":23,"latitude":37.00,"latitudeRadius":-0.6458,"longitude":174.47,"longitudeRadius":3.0505,"latitudeDirection":"S","longitudeDirection":"E"},"airportName":"Auckland","city":{"cityCode":"AKL","cityName":"Auckland","timeZoneName":"Pacific/Auckland"},"country":{"countryCode":"NZ","countryName":"New Zealand"},"region":{"regionCode":"SP","regionName":"South Pacific"}},{"airportCode":"AKN","internationalAirport":false,"domesticAirport":false,"regionalAirport":false,"onlineIndicator":true,"eticketableAirport":false,"location":{"aboveSeaLevel":57,"latitude":58.40,"latitudeRadius":1.0239,"longitude":156.38,"longitudeRadius":-2.7338,"latitudeDirection":"N","longitudeDirection":"W"},"airportName":"King Salmon","city":{"cityCode":"AKN","cityName":"King Salmon","timeZoneName":"America/Anchorage"},"country":{"countryCode":"US","countryName":"United States"},"region":{"regionCode":"AM","regionName":"Americas"}},{"airportCode":"AKO","internationalAirport":false,"domesticAirport":false,"regionalAirport":false,"onlineIndicator":false,"eticketableAirport":false,"location":{"aboveSeaLevel":1436,"latitude":39.00,"latitudeRadius":0.6807,"longitude":97.00,"longitudeRadius":-1.6930,"latitudeDirection":"N","longitudeDirection":"W"},"airportName":"Akron","city":{"cityCode":"AKO","cityName":"Akron","timeZoneName":"America/Los_Angeles"},"country":{"countryCode":"US","countryName":"United States"},"region":{"regionCode":"AM","regionName":"Americas"}},{"airportCode":"AKP","internationalAirport":false,"domesticAirport":false,"regionalAirport":false,"onlineIndicator":false,"eticketableAirport":false,"location":{"aboveSeaLevel":2100,"latitude":68.08,"latitudeRadius":1.1892,"longitude":151.44,"longitudeRadius":-2.6482,"latitudeDirection":"N","longitudeDirection":"W"},"airportName":"Anaktuvuk Pass","city":{"cityCode":"AKP","cityName":"Anaktuvuk Pass","timeZoneName":"America/Anchorage"},"country":{"countryCode":"US","countryName":"United States"},"region":{"regionCode":"AM","regionName":"Americas"}},{"airportCode":"AKR","internationalAirport":false,"domesticAirport":false,"regionalAirport":false,"onlineIndicator":false,"eticketableAirport":false,"location":{"aboveSeaLevel":1068,"latitude":41.02,"latitudeRadius":0.7162,"longitude":81.28,"longitudeRadius":-1.4219,"latitudeDirection":"N","longitudeDirection":"W"},"airportName":"Akure","city":{"cityCode":"AKR","cityName":"Akure","timeZoneName":"Africa/Algiers"},"country":{"countryCode":"NG","countryName":"Nigeria"},"region":{"regionCode":"AF","regionName":"Africa"}},{"airportCode":"AKS","internationalAirport":false,"domesticAirport":false,"regionalAirport":false,"onlineIndicator":false,"eticketableAirport":false,"location":{"aboveSeaLevel":-99999,"latitude":8.45,"latitudeRadius":-0.1527,"longitude":160.44,"longitudeRadius":2.8053,"latitudeDirection":"S","longitudeDirection":"E"},"airportName":"Auki","city":{"cityCode":"AKS","cityName":"Auki","timeZoneName":"Pacific/Noumea"},"country":{"countryCode":"SB","countryName":"Solomon Islands"},"region":{"regionCode":"SP","regionName":"South Pacific"}},{"airportCode":"AKU","internationalAirport":false,"domesticAirport":false,"regionalAirport":false,"onlineIndicator":false,"eticketableAirport":false,"location":{"aboveSeaLevel":-99999,"latitude":41.10,"latitudeRadius":0.7185,"longitude":80.20,"longitudeRadius":1.4021,"latitudeDirection":"N","longitudeDirection":"E"},"airportName":"Aksu","city":{"cityCode":"AKU","cityName":"Aksu","timeZoneName":"Asia/Shanghai"},"country":{"countryCode":"CN","countryName":"China"},"region":{"regionCode":"AS","regionName":"Asia"}},{"airportCode":"AKV","internationalAirport":false,"domesticAirport":false,"regionalAirport":false,"onlineIndicator":false,"eticketableAirport":false,"location":{"aboveSeaLevel":-99999,"latitude":60.40,"latitudeRadius":1.0588,"longitude":78.45,"longitudeRadius":-1.3744,"latitudeDirection":"N","longitudeDirection":"W"},"airportName":"Akulivik","city":{"cityCode":"AKV","cityName":"Akulivik","timeZoneName":"America/Montreal"},"country":{"countryCode":"CA","countryName":"Canada"},"region":{"regionCode":"AM","regionName":"Americas"}},{"airportCode":"AKX","internationalAirport":false,"domesticAirport":false,"regionalAirport":false,"onlineIndicator":false,"eticketableAirport":false,"location":{"aboveSeaLevel":0,"latitude":50.16,"latitudeRadius":0.8773,"longitude":57.13,"longitudeRadius":0.9986,"latitudeDirection":"N","longitudeDirection":"E"},"airportName":"Aktyubinsk","city":{"cityCode":"AKX","cityName":"Aktyubinsk","timeZoneName":"Asia/Aqtau"},"country":{"countryCode":"KZ","countryName":"Kazakhstan"},"region":{"regionCode":"EU","regionName":"Europe"}},{"airportCode":"AKY","internationalAirport":false,"domesticAirport":false,"regionalAirport":false,"onlineIndicator":false,"eticketableAirport":false,"location":{"aboveSeaLevel":28,"latitude":20.07,"latitudeRadius":0.3511,"longitude":92.52,"longitudeRadius":1.6208,"latitudeDirection":"N","longitudeDirection":"E"},"airportName":"Sittwe","city":{"cityCode":"AKY","cityName":"Sittwe","timeZoneName":"Asia/Rangoon"},"country":{"countryCode":"MM","countryName":"Myanmar"},"region":{"regionCode":"AS","regionName":"Asia"}},{"airportCode":"ALA","internationalAirport":false,"domesticAirport":false,"regionalAirport":false,"onlineIndicator":true,"eticketableAirport":false,"location":{"aboveSeaLevel":0,"latitude":43.19,"latitudeRadius":0.7560,"longitude":76.55,"longitudeRadius":1.3424,"latitudeDirection":"N","longitudeDirection":"E"},"airportName":"Almaty","city":{"cityCode":"ALA","cityName":"Almaty","timeZoneName":"Asia/Almaty"},"country":{"countryCode":"KZ","countryName":"Kazakhstan"},"region":{"regionCode":"EU","regionName":"Europe"}},{"airportCode":"ALB","internationalAirport":false,"domesticAirport":false,"regionalAirport":false,"onlineIndicator":true,"eticketableAirport":false,"location":{"aboveSeaLevel":285,"latitude":42.44,"latitudeRadius":0.7458,"longitude":73.48,"longitudeRadius":-1.2881,"latitudeDirection":"N","longitudeDirection":"W"},"airportName":"Albany (US)","city":{"cityCode":"ALB","cityName":"Albany","timeZoneName":"America/New_York"},"country":{"countryCode":"US","countryName":"United States"},"region":{"regionCode":"AM","regionName":"Americas"}},{"airportCode":"ALC","internationalAirport":false,"domesticAirport":false,"regionalAirport":false,"onlineIndicator":true,"eticketableAirport":false,"location":{"aboveSeaLevel":141,"latitude":38.16,"latitudeRadius":0.6679,"longitude":0.33,"longitudeRadius":-0.0096,"latitudeDirection":"N","longitudeDirection":"W"},"airportName":"Alicante","city":{"cityCode":"ALC","cityName":"Alicante","timeZoneName":"Europe/Madrid"},"country":{"countryCode":"ES","countryName":"Spain"},"region":{"regionCode":"EU","regionName":"Europe"}},{"airportCode":"ALF","internationalAirport":false,"domesticAirport":false,"regionalAirport":false,"onlineIndicator":false,"eticketableAirport":false,"location":{"aboveSeaLevel":-99999,"latitude":70.00,"latitudeRadius":1.2217,"longitude":23.15,"longitudeRadius":0.4058,"latitudeDirection":"N","longitudeDirection":"E"},"airportName":"Alta","city":{"cityCode":"ALF","cityName":"Alta","timeZoneName":"Europe/Oslo"},"country":{"countryCode":"NO","countryName":"Norway"},"region":{"regionCode":"EU","regionName":"Europe"}},{"airportCode":"ALG","internationalAirport":true,"domesticAirport":false,"regionalAirport":false,"onlineIndicator":true,"eticketableAirport":false,"location":{"aboveSeaLevel":82,"latitude":36.41,"latitudeRadius":0.6402,"longitude":3.13,"longitudeRadius":0.0561,"latitudeDirection":"N","longitudeDirection":"E"},"airportName":"Algiers","city":{"cityCode":"ALG","cityName":"Algiers","timeZoneName":"Africa/Algiers"},"country":{"countryCode":"DZ","countryName":"Algeria"},"region":{"regionCode":"AF","regionName":"Africa"}},{"airportCode":"ALH","preferredInternationalAirportCode":"PER","internationalAirport":false,"domesticAirport":false,"regionalAirport":true,"onlineIndicator":true,"eticketableAirport":false,"location":{"aboveSeaLevel":9,"latitude":34.56,"latitudeRadius":-0.6097,"longitude":117.48,"longitudeRadius":2.0560,"latitudeDirection":"S","longitudeDirection":"E"},"airportName":"Albany","city":{"cityCode":"ALH","cityName":"Albany","timeZoneName":"Australia/Perth"},"country":{"countryCode":"AU","countryName":"Australia"},"region":{"regionCode":"AU","regionName":"Australia"}},{"airportCode":"ALI","internationalAirport":false,"domesticAirport":false,"regionalAirport":false,"onlineIndicator":false,"eticketableAirport":false,"location":{"aboveSeaLevel":178,"latitude":27.44,"latitudeRadius":0.4840,"longitude":98.01,"longitudeRadius":-1.7107,"latitudeDirection":"N","longitudeDirection":"W"},"airportName":"Alenquer","city":{"cityCode":"ALI","cityName":"Alenquer","timeZoneName":"America/Sao_Paulo"},"country":{"countryCode":"BR","countryName":"Brazil"},"region":{"regionCode":"AM","regionName":"Americas"}},{"airportCode":"ALJ","internationalAirport":false,"domesticAirport":false,"regionalAirport":false,"onlineIndicator":false,"eticketableAirport":false,"location":{"aboveSeaLevel":98,"latitude":28.34,"latitudeRadius":-0.4986,"longitude":16.32,"longitudeRadius":0.2886,"latitudeDirection":"S","longitudeDirection":"E"},"airportName":"Alexander Bay","city":{"cityCode":"ALJ","cityName":"Alexander Bay","timeZoneName":"Africa/Johannesburg"},"country":{"countryCode":"ZA","countryName":"South Africa"},"region":{"regionCode":"AF","regionName":"Africa"}},{"airportCode":"ALK","internationalAirport":false,"domesticAirport":false,"regionalAirport":false,"onlineIndicator":false,"eticketableAirport":false,"location":{"aboveSeaLevel":-99999,"latitude":7.58,"latitudeRadius":0.1390,"longitude":39.04,"longitudeRadius":0.6818,"latitudeDirection":"N","longitudeDirection":"E"},"airportName":"Asela","city":{"cityCode":"ALK","cityName":"Asela","timeZoneName":"Africa/Nairobi"},"country":{"countryCode":"ET","countryName":"Ethiopia"},"region":{"regionCode":"AF","regionName":"Africa"}},{"airportCode":"ALL","internationalAirport":false,"domesticAirport":false,"regionalAirport":false,"onlineIndicator":false,"eticketableAirport":false,"location":{"aboveSeaLevel":149,"latitude":44.03,"latitudeRadius":0.7688,"longitude":8.07,"longitudeRadius":0.1417,"latitudeDirection":"N","longitudeDirection":"E"},"airportName":"Albenga","city":{"cityCode":"ALL","cityName":"Albenga","timeZoneName":"Europe/Rome"},"country":{"countryCode":"IT","countryName":"Italy"},"region":{"regionCode":"EU","regionName":"Europe"}},{"airportCode":"ALM","internationalAirport":false,"domesticAirport":false,"regionalAirport":false,"onlineIndicator":false,"eticketableAirport":false,"location":{"aboveSeaLevel":4197,"latitude":32.50,"latitudeRadius":0.5730,"longitude":105.59,"longitudeRadius":-1.8498,"latitudeDirection":"N","longitudeDirection":"W"},"airportName":"Alamogordo","city":{"cityCode":"ALM","cityName":"Alamogordo","timeZoneName":"America/Denver"},"country":{"countryCode":"US","countryName":"United States"},"region":{"regionCode":"AM","regionName":"Americas"}},{"airportCode":"ALO","internationalAirport":false,"domesticAirport":false,"regionalAirport":false,"onlineIndicator":true,"eticketableAirport":false,"location":{"aboveSeaLevel":873,"latitude":42.33,"latitudeRadius":0.7426,"longitude":92.24,"longitudeRadius":-1.6127,"latitudeDirection":"N","longitudeDirection":"W"},"airportName":"Waterloo","city":{"cityCode":"ALO","cityName":"Waterloo","timeZoneName":"America/Chicago"},"country":{"countryCode":"US","countryName":"United States"},"region":{"regionCode":"AM","regionName":"Americas"}},{"airportCode":"ALP","internationalAirport":false,"domesticAirport":false,"regionalAirport":false,"onlineIndicator":true,"eticketableAirport":false,"location":{"aboveSeaLevel":1276,"latitude":36.10,"latitudeRadius":0.6312,"longitude":37.13,"longitudeRadius":0.6496,"latitudeDirection":"N","longitudeDirection":"E"},"airportName":"Aleppo","city":{"cityCode":"ALP","cityName":"Aleppo","timeZoneName":"Asia/Damascus"},"country":{"countryCode":"SY","countryName":"Syria"},"region":{"regionCode":"EU","regionName":"Europe"}},{"airportCode":"ALQ","internationalAirport":false,"domesticAirport":false,"regionalAirport":false,"onlineIndicator":false,"eticketableAirport":false,"location":{"aboveSeaLevel":-99999,"latitude":29.45,"latitudeRadius":-0.5192,"longitude":55.46,"longitudeRadius":-0.9733,"latitudeDirection":"S","longitudeDirection":"W"},"airportName":"Alegrete","city":{"cityCode":"ALQ","cityName":"Alegrete","timeZoneName":"America/Sao_Paulo"},"country":{"countryCode":"BR","countryName":"Brazil"},"region":{"regionCode":"AM","regionName":"Americas"}},{"airportCode":"ALR","internationalAirport":false,"domesticAirport":false,"regionalAirport":false,"onlineIndicator":false,"eticketableAirport":false,"location":{"aboveSeaLevel":-99999,"latitude":45.14,"latitudeRadius":-0.7895,"longitude":169.26,"longitudeRadius":2.9572,"latitudeDirection":"S","longitudeDirection":"E"},"airportName":"Alexandra","city":{"cityCode":"ALR","cityName":"Alexandra","timeZoneName":"Pacific/Auckland"},"country":{"countryCode":"NZ","countryName":"New Zealand"},"region":{"regionCode":"SP","regionName":"South Pacific"}},{"airportCode":"ALS","internationalAirport":false,"domesticAirport":false,"regionalAirport":false,"onlineIndicator":false,"eticketableAirport":false,"location":{"aboveSeaLevel":7535,"latitude":37.26,"latitudeRadius":0.6533,"longitude":105.51,"longitudeRadius":-1.8474,"latitudeDirection":"N","longitudeDirection":"W"},"airportName":"Alamosa","city":{"cityCode":"ALS","cityName":"Alamosa","timeZoneName":"America/Denver"},"country":{"countryCode":"US","countryName":"United States"},